{"nodes": [{"stop_lat": "40.866978", "stop_code": "", "stop_lon": "-73.893509", "parent_station": "D04", "stop_url": "", "stop_id": "D04N", "stop_desc": "", "stop_name": "Kingsbridge Rd", "location_type": "0", "zone_id": ""}, {"stop_lat": "40.697466", "stop_code": "", "stop_lon": "-73.993086", "parent_station": "231", "stop_url": "", "stop_id": "231S", "stop_desc": "", "stop_name": "Clark St", "location_type": "0", "zone_id": ""}, {"stop_lat": "40.679843", "stop_code": "", "stop_lon": "-73.85147", "parent_station": "A60", "stop_url": "", "stop_id": "A60S", "stop_desc": "", "stop_name": "88 St", "location_type": "0", "zone_id": ""}, {"stop_lat": "40.588849", "stop_code": "", "stop_lon": "-74.09609", "parent_station": "S25", "stop_url": "", "stop_id": "S25S", "stop_desc": "", "stop_name": "Dongan Hills", "location_type": "0", "zone_id": ""}, {"stop_lat": "40.812118", "stop_code": "", "stop_lon": "-73.904098", "parent_station": "615", "stop_url": "", "stop_id": "615N", "stop_desc": "", "stop_name": "E 149 St", "location_type": "0", "zone_id": ""}, {"stop_lat": "40.576127", "stop_code": "", "stop_lon": "-73.975939", "parent_station": "D42", "stop_url": "", "stop_id": "D42N", "stop_desc": "", "stop_name": "W 8 St - NY Aquarium", "location_type": "0", "zone_id": ""}, {"stop_lat": "40.824783", "stop_code": "", "stop_lon": "-73.944216", "parent_station": "D13", "stop_url": "", "stop_id": "D13N", "stop_desc": "", "stop_name": "145 St", "location_type": "0", "zone_id": ""}, {"stop_lat": "40.644041", "stop_code": "", "stop_lon": "-73.979678", "parent_station": "F27", "stop_url": "", "stop_id": "F27N", "stop_desc": "", "stop_name": "Church Av", "location_type": "0", "zone_id": ""}, {"stop_lat": "40.87975", "stop_code": "", "stop_lon": "-73.884655", "parent_station": "402", "stop_url": "", "stop_id": "402N", "stop_desc": "", "stop_name": "Mosholu Pkwy", "location_type": "0", "zone_id": ""}, {"stop_lat": "40.757308", "stop_code": "", "stop_lon": "-73.989735", "parent_station": "", "stop_url": "", "stop_id": "A27", "stop_desc": "", "stop_name": "42 St - Port Authority Bus Terminal", "location_type": "1", "zone_id": ""}, {"stop_lat": "40.588841", "stop_code": "", "stop_lon": "-73.983765", "parent_station": "", "stop_url": "", "stop_id": "B23", "stop_desc": "", "stop_name": "Bay 50 St", "location_type": "1", "zone_id": ""}, {"stop_lat": "40.597704", "stop_code": "", "stop_lon": "-73.986829", "parent_station": "", "stop_url": "", "stop_id": "B22", "stop_desc": "", "stop_name": "25 Av", "location_type": "1", "zone_id": ""}, {"stop_lat": "40.601875", "stop_code": "", "stop_lon": "-73.993728", "parent_station": "", "stop_url": "", "stop_id": "B21", "stop_desc": "", "stop_name": "Bay Pkwy", "location_type": "1", "zone_id": ""}, {"stop_lat": "40.604556", "stop_code": "", "stop_lon": "-73.998168", "parent_station": "", "stop_url": "", "stop_id": "B20", "stop_desc": "", "stop_name": "20 Av", "location_type": "1", "zone_id": ""}, {"stop_lat": "40.709416", "stop_code": "", "stop_lon": "-74.006571", "parent_station": "229", "stop_url": "", "stop_id": "229S", "stop_desc": "", "stop_name": "Fulton St", "location_type": "0", "zone_id": ""}, {"stop_lat": "40.674772", "stop_code": "", "stop_lon": "-73.957624", "parent_station": "S03", "stop_url": "", "stop_id": "S03N", "stop_desc": "", "stop_name": "Park Pl", "location_type": "0", "zone_id": ""}, {"stop_lat": "40.898379", "stop_code": "", "stop_lon": "-73.854376", "parent_station": "204", "stop_url": "", "stop_id": "204S", "stop_desc": "", "stop_name": "Nereid Av", "location_type": "0", "zone_id": ""}, {"stop_lat": "40.725915", "stop_code": "", "stop_lon": "-73.994659", "parent_station": "637", "stop_url": "", "stop_id": "637N", "stop_desc": "", "stop_name": "Bleecker St", "location_type": "0", "zone_id": ""}, {"stop_lat": "40.859022", "stop_code": "", "stop_lon": "-73.93418", "parent_station": "A05", "stop_url": "", "stop_id": "A05N", "stop_desc": "", "stop_name": "190 St", "location_type": "0", "zone_id": ""}, {"stop_lat": "40.678334", "stop_code": "", "stop_lon": "-73.905316", "parent_station": "", "stop_url": "", "stop_id": "A51", "stop_desc": "", "stop_name": "Broadway Jct", "location_type": "1", "zone_id": ""}, {"stop_lat": "40.67834", "stop_code": "", "stop_lon": "-73.911946", "parent_station": "", "stop_url": "", "stop_id": "A50", "stop_desc": "", "stop_name": "Rockaway Av", "location_type": "1", "zone_id": ""}, {"stop_lat": "40.67271", "stop_code": "", "stop_lon": "-73.890358", "parent_station": "", "stop_url": "", "stop_id": "A53", "stop_desc": "", "stop_name": "Van Siclen Av", "location_type": "1", "zone_id": ""}, {"stop_lat": "40.675377", "stop_code": "", "stop_lon": "-73.872106", "parent_station": "", "stop_url": "", "stop_id": "A55", "stop_desc": "", "stop_name": "Euclid Av", "location_type": "1", "zone_id": ""}, {"stop_lat": "40.67413", "stop_code": "", "stop_lon": "-73.88075", "parent_station": "", "stop_url": "", "stop_id": "A54", "stop_desc": "", "stop_name": "Shepherd Av", "location_type": "1", "zone_id": ""}, {"stop_lat": "40.677044", "stop_code": "", "stop_lon": "-73.86505", "parent_station": "", "stop_url": "", "stop_id": "A57", "stop_desc": "", "stop_name": "Grant Av", "location_type": "1", "zone_id": ""}, {"stop_lat": "40.650843", "stop_code": "", "stop_lon": "-73.949575", "parent_station": "244", "stop_url": "", "stop_id": "244S", "stop_desc": "", "stop_name": "Church Av", "location_type": "0", "zone_id": ""}, {"stop_lat": "40.802098", "stop_code": "", "stop_lon": "-73.949625", "parent_station": "226", "stop_url": "", "stop_id": "226N", "stop_desc": "", "stop_name": "116 St", "location_type": "0", "zone_id": ""}, {"stop_lat": "40.600066", "stop_code": "", "stop_lon": "-73.761353", "parent_station": "", "stop_url": "", "stop_id": "H10", "stop_desc": "", "stop_name": "Beach 25 St", "location_type": "1", "zone_id": ""}, {"stop_lat": "40.603995", "stop_code": "", "stop_lon": "-73.755405", "parent_station": "", "stop_url": "", "stop_id": "H11", "stop_desc": "", "stop_name": "Far Rockaway - Mott Av", "location_type": "1", "zone_id": ""}, {"stop_lat": "40.588034", "stop_code": "", "stop_lon": "-73.813641", "parent_station": "", "stop_url": "", "stop_id": "H12", "stop_desc": "", "stop_name": "Beach 90 St", "location_type": "1", "zone_id": ""}, {"stop_lat": "40.585307", "stop_code": "", "stop_lon": "-73.820558", "parent_station": "", "stop_url": "", "stop_id": "H13", "stop_desc": "", "stop_name": "Beach 98 St", "location_type": "1", "zone_id": ""}, {"stop_lat": "40.583209", "stop_code": "", "stop_lon": "-73.827559", "parent_station": "", "stop_url": "", "stop_id": "H14", "stop_desc": "", "stop_name": "Beach 105 St", "location_type": "1", "zone_id": ""}, {"stop_lat": "40.580903", "stop_code": "", "stop_lon": "-73.835592", "parent_station": "", "stop_url": "", "stop_id": "H15", "stop_desc": "", "stop_name": "Rockaway Park - Beach 116 St", "location_type": "1", "zone_id": ""}, {"stop_lat": "40.837288", "stop_code": "", "stop_lon": "-73.887734", "parent_station": "", "stop_url": "", "stop_id": "215", "stop_desc": "", "stop_name": "174 St", "location_type": "1", "zone_id": ""}, {"stop_lat": "40.864621", "stop_code": "", "stop_lon": "-73.918822", "parent_station": "", "stop_url": "", "stop_id": "108", "stop_desc": "", "stop_name": "207 St", "location_type": "1", "zone_id": ""}, {"stop_lat": "40.860531", "stop_code": "", "stop_lon": "-73.925536", "parent_station": "", "stop_url": "", "stop_id": "109", "stop_desc": "", "stop_name": "Dyckman St", "location_type": "1", "zone_id": ""}, {"stop_lat": "40.884667", "stop_code": "", "stop_lon": "-73.90087", "parent_station": "", "stop_url": "", "stop_id": "103", "stop_desc": "", "stop_name": "238 St", "location_type": "1", "zone_id": ""}, {"stop_lat": "40.889248", "stop_code": "", "stop_lon": "-73.898583", "parent_station": "", "stop_url": "", "stop_id": "101", "stop_desc": "", "stop_name": "Van Cortlandt Park - 242 St", "location_type": "1", "zone_id": ""}, {"stop_lat": "40.874561", "stop_code": "", "stop_lon": "-73.909831", "parent_station": "", "stop_url": "", "stop_id": "106", "stop_desc": "", "stop_name": "Marble Hill - 225 St", "location_type": "1", "zone_id": ""}, {"stop_lat": "40.869444", "stop_code": "", "stop_lon": "-73.915279", "parent_station": "", "stop_url": "", "stop_id": "107", "stop_desc": "", "stop_name": "215 St", "location_type": "1", "zone_id": ""}, {"stop_lat": "40.878856", "stop_code": "", "stop_lon": "-73.904834", "parent_station": "", "stop_url": "", "stop_id": "104", "stop_desc": "", "stop_name": "231 St", "location_type": "1", "zone_id": ""}, {"stop_lat": "40.745494", "stop_code": "", "stop_lon": "-73.988691", "parent_station": "R18", "stop_url": "", "stop_id": "R18N", "stop_desc": "", "stop_name": "28 St", "location_type": "0", "zone_id": ""}, {"stop_lat": "40.745906", "stop_code": "", "stop_lon": "-73.998041", "parent_station": "A30", "stop_url": "", "stop_id": "A30N", "stop_desc": "", "stop_name": "23 St", "location_type": "0", "zone_id": ""}, {"stop_lat": "40.688089", "stop_code": "", "stop_lon": "-73.966839", "parent_station": "G35", "stop_url": "", "stop_id": "G35S", "stop_desc": "", "stop_name": "Clinton - Washington Avs", "location_type": "0", "zone_id": ""}, {"stop_lat": "40.730328", "stop_code": "", "stop_lon": "-73.992629", "parent_station": "R21", "stop_url": "", "stop_id": "R21S", "stop_desc": "", "stop_name": "8 St - NYU", "location_type": "0", "zone_id": ""}, {"stop_lat": "40.750582", "stop_code": "", "stop_lon": "-73.940202", "parent_station": "718", "stop_url": "", "stop_id": "718N", "stop_desc": "", "stop_name": "Queensboro Plaza", "location_type": "0", "zone_id": ""}, {"stop_lat": "40.586896", "stop_code": "", "stop_lon": "-73.954155", "parent_station": "", "stop_url": "", "stop_id": "D39", "stop_desc": "", "stop_name": "Sheepshead Bay", "location_type": "1", "zone_id": ""}, {"stop_lat": "40.5993", "stop_code": "", "stop_lon": "-73.955929", "parent_station": "", "stop_url": "", "stop_id": "D37", "stop_desc": "", "stop_name": "Avenue U", "location_type": "1", "zone_id": ""}, {"stop_lat": "40.617618", "stop_code": "", "stop_lon": "-73.959399", "parent_station": "", "stop_url": "", "stop_id": "D34", "stop_desc": "", "stop_name": "Avenue M", "location_type": "1", "zone_id": ""}, {"stop_lat": "40.60867", "stop_code": "", "stop_lon": "-73.957734", "parent_station": "", "stop_url": "", "stop_id": "D35", "stop_desc": "", "stop_name": "Kings Hwy", "location_type": "1", "zone_id": ""}, {"stop_lat": "40.703811", "stop_code": "", "stop_lon": "-73.918425", "parent_station": "L16", "stop_url": "", "stop_id": "L16S", "stop_desc": "", "stop_name": "DeKalb Av", "location_type": "0", "zone_id": ""}, {"stop_lat": "40.625039", "stop_code": "", "stop_lon": "-73.960803", "parent_station": "", "stop_url": "", "stop_id": "D33", "stop_desc": "", "stop_name": "Avenue J", "location_type": "1", "zone_id": ""}, {"stop_lat": "40.640927", "stop_code": "", "stop_lon": "-73.963891", "parent_station": "", "stop_url": "", "stop_id": "D30", "stop_desc": "", "stop_name": "Cortelyou Rd", "location_type": "1", "zone_id": ""}, {"stop_lat": "40.635082", "stop_code": "", "stop_lon": "-73.962793", "parent_station": "", "stop_url": "", "stop_id": "D31", "stop_desc": "", "stop_name": "Newkirk Av", "location_type": "1", "zone_id": ""}, {"stop_lat": "40.807722", "stop_code": "", "stop_lon": "-73.96411", "parent_station": "117", "stop_url": "", "stop_id": "117S", "stop_desc": "", "stop_name": "116 St - Columbia University", "location_type": "0", "zone_id": ""}, {"stop_lat": "40.629742", "stop_code": "", "stop_lon": "-74.02551", "parent_station": "R43", "stop_url": "", "stop_id": "R43S", "stop_desc": "", "stop_name": "77 St", "location_type": "0", "zone_id": ""}, {"stop_lat": "40.799446", "stop_code": "", "stop_lon": "-73.968379", "parent_station": "119", "stop_url": "", "stop_id": "119S", "stop_desc": "", "stop_name": "103 St", "location_type": "0", "zone_id": ""}, {"stop_lat": "40.749145", "stop_code": "", "stop_lon": "-73.869527", "parent_station": "707", "stop_url": "", "stop_id": "707S", "stop_desc": "", "stop_name": "Junction Blvd", "location_type": "0", "zone_id": ""}, {"stop_lat": "40.830135", "stop_code": "", "stop_lon": "-73.938209", "parent_station": "D12", "stop_url": "", "stop_id": "D12N", "stop_desc": "", "stop_name": "155 St", "location_type": "0", "zone_id": ""}, {"stop_lat": "40.577422", "stop_code": "", "stop_lon": "-73.981233", "parent_station": "D43", "stop_url": "", "stop_id": "D43S", "stop_desc": "", "stop_name": "Coney Island - Stillwell Av", "location_type": "0", "zone_id": ""}, {"stop_lat": "40.718383", "stop_code": "", "stop_lon": "-74.00046", "parent_station": "Q01", "stop_url": "", "stop_id": "Q01N", "stop_desc": "", "stop_name": "Canal St", "location_type": "0", "zone_id": ""}, {"stop_lat": "40.862803", "stop_code": "", "stop_lon": "-73.901034", "parent_station": "", "stop_url": "", "stop_id": "407", "stop_desc": "", "stop_name": "Fordham Rd", "location_type": "1", "zone_id": ""}, {"stop_lat": "40.873412", "stop_code": "", "stop_lon": "-73.890064", "parent_station": "", "stop_url": "", "stop_id": "405", "stop_desc": "", "stop_name": "Bedford Park Blvd - Lehman College", "location_type": "1", "zone_id": ""}, {"stop_lat": "40.886037", "stop_code": "", "stop_lon": "-73.878751", "parent_station": "", "stop_url": "", "stop_id": "401", "stop_desc": "", "stop_name": "Woodlawn", "location_type": "1", "zone_id": ""}, {"stop_lat": "40.515401", "stop_code": "", "stop_lon": "-74.245689", "parent_station": "", "stop_url": "", "stop_id": "S10", "stop_desc": "", "stop_name": "Atlantic", "location_type": "1", "zone_id": ""}, {"stop_lat": "40.853453", "stop_code": "", "stop_lon": "-73.907684", "parent_station": "", "stop_url": "", "stop_id": "409", "stop_desc": "", "stop_name": "Burnside Av", "location_type": "1", "zone_id": ""}, {"stop_lat": "40.858407", "stop_code": "", "stop_lon": "-73.903879", "parent_station": "", "stop_url": "", "stop_id": "408", "stop_desc": "", "stop_name": "183 St", "location_type": "1", "zone_id": ""}, {"stop_lat": "40.717304", "stop_code": "", "stop_lon": "-73.956872", "parent_station": "", "stop_url": "", "stop_id": "L08", "stop_desc": "", "stop_name": "Bedford Av", "location_type": "1", "zone_id": ""}, {"stop_lat": "40.730953", "stop_code": "", "stop_lon": "-73.981628", "parent_station": "", "stop_url": "", "stop_id": "L06", "stop_desc": "", "stop_name": "1 Av", "location_type": "1", "zone_id": ""}, {"stop_lat": "40.732849", "stop_code": "", "stop_lon": "-73.986122", "parent_station": "", "stop_url": "", "stop_id": "L05", "stop_desc": "", "stop_name": "3 Av", "location_type": "1", "zone_id": ""}, {"stop_lat": "40.734789", "stop_code": "", "stop_lon": "-73.99073", "parent_station": "", "stop_url": "", "stop_id": "L03", "stop_desc": "", "stop_name": "Union Sq - 14 St", "location_type": "1", "zone_id": ""}, {"stop_lat": "40.737335", "stop_code": "", "stop_lon": "-73.996786", "parent_station": "", "stop_url": "", "stop_id": "L02", "stop_desc": "", "stop_name": "6 Av", "location_type": "1", "zone_id": ""}, {"stop_lat": "40.739777", "stop_code": "", "stop_lon": "-74.002578", "parent_station": "", "stop_url": "", "stop_id": "L01", "stop_desc": "", "stop_name": "8 Av", "location_type": "1", "zone_id": ""}, {"stop_lat": "40.715478", "stop_code": "", "stop_lon": "-74.009266", "parent_station": "137", "stop_url": "", "stop_id": "137N", "stop_desc": "", "stop_name": "Chambers St", "location_type": "0", "zone_id": ""}, {"stop_lat": "40.70546", "stop_code": "", "stop_lon": "-73.810708", "parent_station": "F04", "stop_url": "", "stop_id": "F04S", "stop_desc": "", "stop_name": "Sutphin Blvd", "location_type": "0", "zone_id": ""}, {"stop_lat": "40.697857", "stop_code": "", "stop_lon": "-73.927397", "parent_station": "M10", "stop_url": "", "stop_id": "M10S", "stop_desc": "", "stop_name": "Central Av", "location_type": "0", "zone_id": ""}, {"stop_lat": "40.799075", "stop_code": "", "stop_lon": "-73.951822", "parent_station": "227", "stop_url": "", "stop_id": "227S", "stop_desc": "", "stop_name": "Central Park North (110 St)", "location_type": "0", "zone_id": ""}, {"stop_lat": "40.706821", "stop_code": "", "stop_lon": "-74.0091", "parent_station": "230", "stop_url": "", "stop_id": "230S", "stop_desc": "", "stop_name": "Wall St", "location_type": "0", "zone_id": ""}, {"stop_lat": "40.680438", "stop_code": "", "stop_lon": "-73.950426", "parent_station": "", "stop_url": "", "stop_id": "A46", "stop_desc": "", "stop_name": "Nostrand Av", "location_type": "1", "zone_id": ""}, {"stop_lat": "40.679921", "stop_code": "", "stop_lon": "-73.940858", "parent_station": "", "stop_url": "", "stop_id": "A47", "stop_desc": "", "stop_name": "Kingston - Throop Avs", "location_type": "1", "zone_id": ""}, {"stop_lat": "40.68138", "stop_code": "", "stop_lon": "-73.956848", "parent_station": "", "stop_url": "", "stop_id": "A45", "stop_desc": "", "stop_name": "Franklin Av", "location_type": "1", "zone_id": ""}, {"stop_lat": "40.686113", "stop_code": "", "stop_lon": "-73.973946", "parent_station": "", "stop_url": "", "stop_id": "A43", "stop_desc": "", "stop_name": "Lafayette Av", "location_type": "1", "zone_id": ""}, {"stop_lat": "40.699337", "stop_code": "", "stop_lon": "-73.990531", "parent_station": "", "stop_url": "", "stop_id": "A40", "stop_desc": "", "stop_name": "High St", "location_type": "1", "zone_id": ""}, {"stop_lat": "40.662742", "stop_code": "", "stop_lon": "-73.95085", "parent_station": "", "stop_url": "", "stop_id": "242", "stop_desc": "", "stop_name": "Sterling St", "location_type": "1", "zone_id": ""}, {"stop_lat": "40.669399", "stop_code": "", "stop_lon": "-73.942161", "parent_station": "", "stop_url": "", "stop_id": "249", "stop_desc": "", "stop_name": "Kingston Av", "location_type": "1", "zone_id": ""}, {"stop_lat": "40.669847", "stop_code": "", "stop_lon": "-73.950466", "parent_station": "", "stop_url": "", "stop_id": "248", "stop_desc": "", "stop_name": "Nostrand Av", "location_type": "1", "zone_id": ""}, {"stop_lat": "40.679364", "stop_code": "", "stop_lon": "-73.930729", "parent_station": "", "stop_url": "", "stop_id": "A48", "stop_desc": "", "stop_name": "Utica Av", "location_type": "1", "zone_id": ""}, {"stop_lat": "40.678822", "stop_code": "", "stop_lon": "-73.920786", "parent_station": "", "stop_url": "", "stop_id": "A49", "stop_desc": "", "stop_name": "Ralph Av", "location_type": "1", "zone_id": ""}, {"stop_lat": "40.583591", "stop_code": "", "stop_lon": "-74.103338", "parent_station": "S24", "stop_url": "", "stop_id": "S24S", "stop_desc": "", "stop_name": "Jefferson Av", "location_type": "0", "zone_id": ""}, {"stop_lat": "40.816104", "stop_code": "", "stop_lon": "-73.896435", "parent_station": "614", "stop_url": "", "stop_id": "614N", "stop_desc": "", "stop_name": "Longwood Av", "location_type": "0", "zone_id": ""}, {"stop_lat": "40.698664", "stop_code": "", "stop_lon": "-73.919711", "parent_station": "M09", "stop_url": "", "stop_id": "M09N", "stop_desc": "", "stop_name": "Knickerbocker Av", "location_type": "0", "zone_id": ""}, {"stop_lat": "40.804138", "stop_code": "", "stop_lon": "-73.937594", "parent_station": "621", "stop_url": "", "stop_id": "621N", "stop_desc": "", "stop_name": "125 St", "location_type": "0", "zone_id": ""}, {"stop_lat": "40.742626", "stop_code": "", "stop_lon": "-73.953581", "parent_station": "721", "stop_url": "", "stop_id": "721S", "stop_desc": "", "stop_name": "Vernon Blvd - Jackson Av", "location_type": "0", "zone_id": ""}, {"stop_lat": "40.702566", "stop_code": "", "stop_lon": "-73.816859", "parent_station": "G07", "stop_url": "", "stop_id": "G07N", "stop_desc": "", "stop_name": "Jamaica - Van Wyck", "location_type": "0", "zone_id": ""}, {"stop_lat": "40.724329", "stop_code": "", "stop_lon": "-73.997702", "parent_station": "R22", "stop_url": "", "stop_id": "R22S", "stop_desc": "", "stop_name": "Prince St", "location_type": "0", "zone_id": ""}, {"stop_lat": "40.893193", "stop_code": "", "stop_lon": "-73.857473", "parent_station": "205", "stop_url": "", "stop_id": "205S", "stop_desc": "", "stop_name": "233 St", "location_type": "0", "zone_id": ""}, {"stop_lat": "40.729846", "stop_code": "", "stop_lon": "-73.861604", "parent_station": "G10", "stop_url": "", "stop_id": "G10S", "stop_desc": "", "stop_name": "63 Dr - Rego Park", "location_type": "0", "zone_id": ""}, {"stop_lat": "40.730054", "stop_code": "", "stop_lon": "-73.99107", "parent_station": "636", "stop_url": "", "stop_id": "636N", "stop_desc": "", "stop_name": "Astor Pl", "location_type": "0", "zone_id": ""}, {"stop_lat": "40.670847", "stop_code": "", "stop_lon": "-73.988302", "parent_station": "R33", "stop_url": "", "stop_id": "R33S", "stop_desc": "", "stop_name": "9 St", "location_type": "0", "zone_id": ""}, {"stop_lat": "40.645098", "stop_code": "", "stop_lon": "-73.948959", "parent_station": "245", "stop_url": "", "stop_id": "245S", "stop_desc": "", "stop_name": "Beverly Rd", "location_type": "0", "zone_id": ""}, {"stop_lat": "40.674542", "stop_code": "", "stop_lon": "-73.896548", "parent_station": "", "stop_url": "", "stop_id": "A52", "stop_desc": "", "stop_name": "Liberty Av", "location_type": "1", "zone_id": ""}, {"stop_lat": "40.840719", "stop_code": "", "stop_lon": "-73.939561", "parent_station": "A09", "stop_url": "", "stop_id": "A09N", "stop_desc": "", "stop_name": "168 St", "location_type": "0", "zone_id": ""}, {"stop_lat": "40.749865", "stop_code": "", "stop_lon": "-73.8627", "parent_station": "706", "stop_url": "", "stop_id": "706S", "stop_desc": "", "stop_name": "103 St - Corona Plaza", "location_type": "0", "zone_id": ""}, {"stop_lat": "40.679371", "stop_code": "", "stop_lon": "-73.858992", "parent_station": "", "stop_url": "", "stop_id": "A59", "stop_desc": "", "stop_name": "80 St", "location_type": "1", "zone_id": ""}, {"stop_lat": "40.645069", "stop_code": "", "stop_lon": "-74.014034", "parent_station": "R40", "stop_url": "", "stop_id": "R40N", "stop_desc": "", "stop_name": "53 St", "location_type": "0", "zone_id": ""}, {"stop_lat": "40.759901", "stop_code": "", "stop_lon": "-73.984139", "parent_station": "R15", "stop_url": "", "stop_id": "R15N", "stop_desc": "", "stop_name": "49 St", "location_type": "0", "zone_id": ""}, {"stop_lat": "40.77362", "stop_code": "", "stop_lon": "-73.959874", "parent_station": "627", "stop_url": "", "stop_id": "627N", "stop_desc": "", "stop_name": "77 St", "location_type": "0", "zone_id": ""}, {"stop_lat": "40.693879", "stop_code": "", "stop_lon": "-73.851576", "parent_station": "J15", "stop_url": "", "stop_id": "J15N", "stop_desc": "", "stop_name": "Woodhaven Blvd", "location_type": "0", "zone_id": ""}, {"stop_lat": "40.603923", "stop_code": "", "stop_lon": "-73.980353", "parent_station": "N08", "stop_url": "", "stop_id": "N08N", "stop_desc": "", "stop_name": "Kings Hwy", "location_type": "0", "zone_id": ""}, {"stop_lat": "40.752882", "stop_code": "", "stop_lon": "-73.932755", "parent_station": "R08", "stop_url": "", "stop_id": "R08S", "stop_desc": "", "stop_name": "39 Av", "location_type": "0", "zone_id": ""}, {"stop_lat": "40.711835", "stop_code": "", "stop_lon": "-74.012188", "parent_station": "138", "stop_url": "", "stop_id": "138N", "stop_desc": "", "stop_name": "Cortlandt St", "location_type": "0", "zone_id": ""}, {"stop_lat": "40.732338", "stop_code": "", "stop_lon": "-74.000495", "parent_station": "D20", "stop_url": "", "stop_id": "D20S", "stop_desc": "", "stop_name": "W 4 St", "location_type": "0", "zone_id": ""}, {"stop_lat": "40.670272", "stop_code": "", "stop_lon": "-73.989779", "parent_station": "", "stop_url": "", "stop_id": "F23", "stop_desc": "", "stop_name": "4 Av", "location_type": "1", "zone_id": ""}, {"stop_lat": "40.67358", "stop_code": "", "stop_lon": "-73.995959", "parent_station": "", "stop_url": "", "stop_id": "F22", "stop_desc": "", "stop_name": "Smith - 9 Sts", "location_type": "1", "zone_id": ""}, {"stop_lat": "40.686145", "stop_code": "", "stop_lon": "-73.990862", "parent_station": "", "stop_url": "", "stop_id": "F20", "stop_desc": "", "stop_name": "Bergen St", "location_type": "1", "zone_id": ""}, {"stop_lat": "40.650782", "stop_code": "", "stop_lon": "-73.975776", "parent_station": "", "stop_url": "", "stop_id": "F26", "stop_desc": "", "stop_name": "Fort Hamilton Pkwy", "location_type": "1", "zone_id": ""}, {"stop_lat": "40.660365", "stop_code": "", "stop_lon": "-73.979493", "parent_station": "", "stop_url": "", "stop_id": "F25", "stop_desc": "", "stop_name": "15 St - Prospect Park", "location_type": "1", "zone_id": ""}, {"stop_lat": "40.666271", "stop_code": "", "stop_lon": "-73.980305", "parent_station": "", "stop_url": "", "stop_id": "F24", "stop_desc": "", "stop_name": "7 Av", "location_type": "1", "zone_id": ""}, {"stop_lat": "40.636119", "stop_code": "", "stop_lon": "-73.978172", "parent_station": "", "stop_url": "", "stop_id": "F29", "stop_desc": "", "stop_name": "Ditmas Av", "location_type": "1", "zone_id": ""}, {"stop_lat": "40.763972", "stop_code": "", "stop_lon": "-73.97745", "parent_station": "B10", "stop_url": "", "stop_id": "B10S", "stop_desc": "", "stop_name": "57 St", "location_type": "0", "zone_id": ""}, {"stop_lat": "40.709179", "stop_code": "", "stop_lon": "-73.820574", "parent_station": "F05", "stop_url": "", "stop_id": "F05S", "stop_desc": "", "stop_name": "Briarwood - Van Wyck Blvd", "location_type": "0", "zone_id": ""}, {"stop_lat": "40.747023", "stop_code": "", "stop_lon": "-73.945264", "parent_station": "719", "stop_url": "", "stop_id": "719N", "stop_desc": "", "stop_name": "45 Rd - Court House Sq", "location_type": "0", "zone_id": ""}, {"stop_lat": "40.706607", "stop_code": "", "stop_lon": "-73.922913", "parent_station": "L15", "stop_url": "", "stop_id": "L15S", "stop_desc": "", "stop_name": "Jefferson St", "location_type": "0", "zone_id": ""}, {"stop_lat": "40.827994", "stop_code": "", "stop_lon": "-73.925831", "parent_station": "", "stop_url": "", "stop_id": "414", "stop_desc": "", "stop_name": "161 St - Yankee Stadium", "location_type": "1", "zone_id": ""}, {"stop_lat": "40.818375", "stop_code": "", "stop_lon": "-73.927351", "parent_station": "", "stop_url": "", "stop_id": "415", "stop_desc": "", "stop_name": "149 St - Grand Concourse", "location_type": "1", "zone_id": ""}, {"stop_lat": "40.813224", "stop_code": "", "stop_lon": "-73.929849", "parent_station": "", "stop_url": "", "stop_id": "416", "stop_desc": "", "stop_name": "138 St - Grand Concourse", "location_type": "1", "zone_id": ""}, {"stop_lat": "40.84848", "stop_code": "", "stop_lon": "-73.911794", "parent_station": "", "stop_url": "", "stop_id": "410", "stop_desc": "", "stop_name": "176 St", "location_type": "1", "zone_id": ""}, {"stop_lat": "40.844434", "stop_code": "", "stop_lon": "-73.914685", "parent_station": "", "stop_url": "", "stop_id": "411", "stop_desc": "", "stop_name": "Mt Eden Av", "location_type": "1", "zone_id": ""}, {"stop_lat": "40.840075", "stop_code": "", "stop_lon": "-73.917791", "parent_station": "", "stop_url": "", "stop_id": "412", "stop_desc": "", "stop_name": "170 St", "location_type": "1", "zone_id": ""}, {"stop_lat": "40.835537", "stop_code": "", "stop_lon": "-73.9214", "parent_station": "", "stop_url": "", "stop_id": "413", "stop_desc": "", "stop_name": "167 St", "location_type": "1", "zone_id": ""}, {"stop_lat": "40.695602", "stop_code": "", "stop_lon": "-73.904084", "parent_station": "", "stop_url": "", "stop_id": "L19", "stop_desc": "", "stop_name": "Halsey St", "location_type": "1", "zone_id": ""}, {"stop_lat": "40.706152", "stop_code": "", "stop_lon": "-73.933147", "parent_station": "", "stop_url": "", "stop_id": "L14", "stop_desc": "", "stop_name": "Morgan Av", "location_type": "1", "zone_id": ""}, {"stop_lat": "40.699814", "stop_code": "", "stop_lon": "-73.911586", "parent_station": "", "stop_url": "", "stop_id": "L17", "stop_desc": "", "stop_name": "Myrtle - Wyckoff Avs", "location_type": "1", "zone_id": ""}, {"stop_lat": "40.714063", "stop_code": "", "stop_lon": "-73.950275", "parent_station": "", "stop_url": "", "stop_id": "L10", "stop_desc": "", "stop_name": "Lorimer St", "location_type": "1", "zone_id": ""}, {"stop_lat": "40.714565", "stop_code": "", "stop_lon": "-73.944053", "parent_station": "", "stop_url": "", "stop_id": "L11", "stop_desc": "", "stop_name": "Graham Av", "location_type": "1", "zone_id": ""}, {"stop_lat": "40.711926", "stop_code": "", "stop_lon": "-73.94067", "parent_station": "", "stop_url": "", "stop_id": "L12", "stop_desc": "", "stop_name": "Grand St", "location_type": "1", "zone_id": ""}, {"stop_lat": "40.707739", "stop_code": "", "stop_lon": "-73.93985", "parent_station": "", "stop_url": "", "stop_id": "L13", "stop_desc": "", "stop_name": "Montrose Av", "location_type": "1", "zone_id": ""}, {"stop_lat": "40.856093", "stop_code": "", "stop_lon": "-73.900741", "parent_station": "D06", "stop_url": "", "stop_id": "D06S", "stop_desc": "", "stop_name": "182 - 183 Sts", "location_type": "0", "zone_id": ""}, {"stop_lat": "40.703869", "stop_code": "", "stop_lon": "-73.947408", "parent_station": "M13", "stop_url": "", "stop_id": "M13S", "stop_desc": "", "stop_name": "Lorimer St", "location_type": "0", "zone_id": ""}, {"stop_lat": "40.805368", "stop_code": "", "stop_lon": "-73.914042", "parent_station": "617", "stop_url": "", "stop_id": "617N", "stop_desc": "", "stop_name": "Cypress Av", "location_type": "0", "zone_id": ""}, {"stop_lat": "40.697207", "stop_code": "", "stop_lon": "-73.935657", "parent_station": "", "stop_url": "", "stop_id": "M11", "stop_desc": "", "stop_name": "Myrtle Av", "location_type": "1", "zone_id": ""}, {"stop_lat": "40.636949", "stop_code": "", "stop_lon": "-74.074835", "parent_station": "S30", "stop_url": "", "stop_id": "S30N", "stop_desc": "", "stop_name": "Tompkinsville", "location_type": "0", "zone_id": ""}, {"stop_lat": "40.708359", "stop_code": "", "stop_lon": "-73.957757", "parent_station": "", "stop_url": "", "stop_id": "M16", "stop_desc": "", "stop_name": "Marcy Av", "location_type": "1", "zone_id": ""}, {"stop_lat": "40.754203", "stop_code": "", "stop_lon": "-73.942836", "parent_station": "", "stop_url": "", "stop_id": "B04", "stop_desc": "", "stop_name": "21 St - Queensbridge", "location_type": "1", "zone_id": ""}, {"stop_lat": "40.718315", "stop_code": "", "stop_lon": "-73.987437", "parent_station": "", "stop_url": "", "stop_id": "M18", "stop_desc": "", "stop_name": "Essex St", "location_type": "1", "zone_id": ""}, {"stop_lat": "40.764629", "stop_code": "", "stop_lon": "-73.966113", "parent_station": "", "stop_url": "", "stop_id": "B08", "stop_desc": "", "stop_name": "Lexington Av/63 St", "location_type": "1", "zone_id": ""}, {"stop_lat": "40.847391", "stop_code": "", "stop_lon": "-73.939704", "parent_station": "A07", "stop_url": "", "stop_id": "A07N", "stop_desc": "", "stop_name": "175 St", "location_type": "0", "zone_id": ""}, {"stop_lat": "40.664717", "stop_code": "", "stop_lon": "-73.92261", "parent_station": "251", "stop_url": "", "stop_id": "251N", "stop_desc": "", "stop_name": "Sutter Av - Rutland Rd", "location_type": "0", "zone_id": ""}, {"stop_lat": "40.810476", "stop_code": "", "stop_lon": "-73.926138", "parent_station": "619", "stop_url": "", "stop_id": "619N", "stop_desc": "", "stop_name": "3 Av - 138 St", "location_type": "0", "zone_id": ""}, {"stop_lat": "40.662549", "stop_code": "", "stop_lon": "-73.908946", "parent_station": "", "stop_url": "", "stop_id": "253", "stop_desc": "", "stop_name": "Rockaway Av", "location_type": "1", "zone_id": ""}, {"stop_lat": "40.668897", "stop_code": "", "stop_lon": "-73.932942", "parent_station": "", "stop_url": "", "stop_id": "250", "stop_desc": "", "stop_name": "Crown Hts - Utica Av", "location_type": "1", "zone_id": ""}, {"stop_lat": "40.733106", "stop_code": "", "stop_lon": "-73.869229", "parent_station": "G11", "stop_url": "", "stop_id": "G11N", "stop_desc": "", "stop_name": "Woodhaven Blvd", "location_type": "0", "zone_id": ""}, {"stop_lat": "40.663515", "stop_code": "", "stop_lon": "-73.902447", "parent_station": "", "stop_url": "", "stop_id": "254", "stop_desc": "", "stop_name": "Junius St", "location_type": "1", "zone_id": ""}, {"stop_lat": "40.664635", "stop_code": "", "stop_lon": "-73.894895", "parent_station": "", "stop_url": "", "stop_id": "255", "stop_desc": "", "stop_name": "Pennsylvania Av", "location_type": "1", "zone_id": ""}, {"stop_lat": "40.551231", "stop_code": "", "stop_lon": "-74.151399", "parent_station": "", "stop_url": "", "stop_id": "S19", "stop_desc": "", "stop_name": "Great Kills", "location_type": "1", "zone_id": ""}, {"stop_lat": "40.544601", "stop_code": "", "stop_lon": "-74.16457", "parent_station": "", "stop_url": "", "stop_id": "S18", "stop_desc": "", "stop_name": "Eltingville", "location_type": "1", "zone_id": ""}, {"stop_lat": "40.519631", "stop_code": "", "stop_lon": "-74.229141", "parent_station": "", "stop_url": "", "stop_id": "S13", "stop_desc": "", "stop_name": "Richmond Valley", "location_type": "1", "zone_id": ""}, {"stop_lat": "40.517812", "stop_code": "", "stop_lon": "-74.238373", "parent_station": "", "stop_url": "", "stop_id": "S12", "stop_desc": "", "stop_name": "Nassau", "location_type": "1", "zone_id": ""}, {"stop_lat": "40.54046", "stop_code": "", "stop_lon": "-74.178217", "parent_station": "", "stop_url": "", "stop_id": "S17", "stop_desc": "", "stop_name": "Annadale", "location_type": "1", "zone_id": ""}, {"stop_lat": "40.724635", "stop_code": "", "stop_lon": "-73.951277", "parent_station": "G28", "stop_url": "", "stop_id": "G28N", "stop_desc": "", "stop_name": "Nassau Av", "location_type": "0", "zone_id": ""}, {"stop_lat": "40.706476", "stop_code": "", "stop_lon": "-74.011056", "parent_station": "M23", "stop_url": "", "stop_id": "M23N", "stop_desc": "", "stop_name": "Broad St", "location_type": "0", "zone_id": ""}, {"stop_lat": "40.52241", "stop_code": "", "stop_lon": "-74.217847", "parent_station": "", "stop_url": "", "stop_id": "S14", "stop_desc": "", "stop_name": "Pleasant Plains", "location_type": "1", "zone_id": ""}, {"stop_lat": "40.81649", "stop_code": "", "stop_lon": "-73.907807", "parent_station": "220", "stop_url": "", "stop_id": "220S", "stop_desc": "", "stop_name": "Jackson Av", "location_type": "0", "zone_id": ""}, {"stop_lat": "40.603117", "stop_code": "", "stop_lon": "-74.084087", "parent_station": "S27", "stop_url": "", "stop_id": "S27N", "stop_desc": "", "stop_name": "Grasmere", "location_type": "0", "zone_id": ""}, {"stop_lat": "40.819585", "stop_code": "", "stop_lon": "-73.90177", "parent_station": "219", "stop_url": "", "stop_id": "219N", "stop_desc": "", "stop_name": "Prospect Av", "location_type": "0", "zone_id": ""}, {"stop_lat": "40.695178", "stop_code": "", "stop_lon": "-73.84433", "parent_station": "J14", "stop_url": "", "stop_id": "J14N", "stop_desc": "", "stop_name": "104 St", "location_type": "0", "zone_id": ""}, {"stop_lat": "40.597473", "stop_code": "", "stop_lon": "-73.979137", "parent_station": "N09", "stop_url": "", "stop_id": "N09N", "stop_desc": "", "stop_name": "Avenue U", "location_type": "0", "zone_id": ""}, {"stop_lat": "40.742216", "stop_code": "", "stop_lon": "-73.948916", "parent_station": "720", "stop_url": "", "stop_id": "720S", "stop_desc": "", "stop_name": "Hunters Point Av", "location_type": "0", "zone_id": ""}, {"stop_lat": "40.712582", "stop_code": "", "stop_lon": "-74.009781", "parent_station": "", "stop_url": "", "stop_id": "E01", "stop_desc": "", "stop_name": "World Trade Center", "location_type": "1", "zone_id": ""}, {"stop_lat": "40.854364", "stop_code": "", "stop_lon": "-73.860495", "parent_station": "505", "stop_url": "", "stop_id": "505N", "stop_desc": "", "stop_name": "Morris Park", "location_type": "0", "zone_id": ""}, {"stop_lat": "40.762456", "stop_code": "", "stop_lon": "-73.985984", "parent_station": "A25", "stop_url": "", "stop_id": "A25S", "stop_desc": "", "stop_name": "50 St", "location_type": "0", "zone_id": ""}, {"stop_lat": "40.75173", "stop_code": "", "stop_lon": "-73.855334", "parent_station": "705", "stop_url": "", "stop_id": "705N", "stop_desc": "", "stop_name": "111 St", "location_type": "0", "zone_id": ""}, {"stop_lat": "40.62927", "stop_code": "", "stop_lon": "-73.961639", "parent_station": "D32", "stop_url": "", "stop_id": "D32N", "stop_desc": "", "stop_name": "Avenue H", "location_type": "0", "zone_id": ""}, {"stop_lat": "40.822008", "stop_code": "", "stop_lon": "-73.953676", "parent_station": "115", "stop_url": "", "stop_id": "115S", "stop_desc": "", "stop_name": "137 St - City College", "location_type": "0", "zone_id": ""}, {"stop_lat": "40.688764", "stop_code": "", "stop_lon": "-73.904046", "parent_station": "L20", "stop_url": "", "stop_id": "L20S", "stop_desc": "", "stop_name": "Wilson Av", "location_type": "0", "zone_id": ""}, {"stop_lat": "40.629755", "stop_code": "", "stop_lon": "-73.976971", "parent_station": "", "stop_url": "", "stop_id": "F30", "stop_desc": "", "stop_name": "18 Av", "location_type": "1", "zone_id": ""}, {"stop_lat": "40.625322", "stop_code": "", "stop_lon": "-73.976127", "parent_station": "", "stop_url": "", "stop_id": "F31", "stop_desc": "", "stop_name": "Avenue I", "location_type": "1", "zone_id": ""}, {"stop_lat": "40.620769", "stop_code": "", "stop_lon": "-73.975264", "parent_station": "", "stop_url": "", "stop_id": "F32", "stop_desc": "", "stop_name": "Bay Pkwy", "location_type": "1", "zone_id": ""}, {"stop_lat": "40.61514", "stop_code": "", "stop_lon": "-73.974197", "parent_station": "", "stop_url": "", "stop_id": "F33", "stop_desc": "", "stop_name": "Avenue N", "location_type": "1", "zone_id": ""}, {"stop_lat": "40.608944", "stop_code": "", "stop_lon": "-73.973022", "parent_station": "", "stop_url": "", "stop_id": "F34", "stop_desc": "", "stop_name": "Avenue P", "location_type": "1", "zone_id": ""}, {"stop_lat": "40.58962", "stop_code": "", "stop_lon": "-73.97425", "parent_station": "", "stop_url": "", "stop_id": "F38", "stop_desc": "", "stop_name": "Avenue X", "location_type": "1", "zone_id": ""}, {"stop_lat": "40.581011", "stop_code": "", "stop_lon": "-73.974574", "parent_station": "", "stop_url": "", "stop_id": "F39", "stop_desc": "", "stop_name": "Neptune Av", "location_type": "1", "zone_id": ""}, {"stop_lat": "40.764664", "stop_code": "", "stop_lon": "-73.980658", "parent_station": "R14", "stop_url": "", "stop_id": "R14N", "stop_desc": "", "stop_name": "57 St - 7 Av", "location_type": "0", "zone_id": ""}, {"stop_lat": "40.641362", "stop_code": "", "stop_lon": "-74.017881", "parent_station": "R41", "stop_url": "", "stop_id": "R41N", "stop_desc": "", "stop_name": "59 St", "location_type": "0", "zone_id": ""}, {"stop_lat": "40.643748", "stop_code": "", "stop_lon": "-74.073643", "parent_station": "S31", "stop_url": "", "stop_id": "S31N", "stop_desc": "", "stop_name": "St George", "location_type": "0", "zone_id": ""}, {"stop_lat": "40.640914", "stop_code": "", "stop_lon": "-73.994304", "parent_station": "B13", "stop_url": "", "stop_id": "B13N", "stop_desc": "", "stop_name": "Fort Hamilton Pkwy", "location_type": "0", "zone_id": ""}, {"stop_lat": "40.704817", "stop_code": "", "stop_lon": "-74.014065", "parent_station": "", "stop_url": "", "stop_id": "420", "stop_desc": "", "stop_name": "Bowling Green", "location_type": "1", "zone_id": ""}, {"stop_lat": "40.707513", "stop_code": "", "stop_lon": "-74.013783", "parent_station": "139", "stop_url": "", "stop_id": "139N", "stop_desc": "", "stop_name": "Rector St", "location_type": "0", "zone_id": ""}, {"stop_lat": "40.757552", "stop_code": "", "stop_lon": "-73.969055", "parent_station": "F11", "stop_url": "", "stop_id": "F11N", "stop_desc": "", "stop_name": "Lexington Av/53 St", "location_type": "0", "zone_id": ""}, {"stop_lat": "40.71047", "stop_code": "", "stop_lon": "-73.793604", "parent_station": "F02", "stop_url": "", "stop_id": "F02S", "stop_desc": "", "stop_name": "169 St", "location_type": "0", "zone_id": ""}, {"stop_lat": "40.816109", "stop_code": "", "stop_lon": "-73.917757", "parent_station": "221", "stop_url": "", "stop_id": "221S", "stop_desc": "", "stop_name": "3 Av - 149 St", "location_type": "0", "zone_id": ""}, {"stop_lat": "40.596612", "stop_code": "", "stop_lon": "-74.087368", "parent_station": "S26", "stop_url": "", "stop_id": "S26N", "stop_desc": "", "stop_name": "Old Town", "location_type": "0", "zone_id": ""}, {"stop_lat": "40.626472", "stop_code": "", "stop_lon": "-73.996895", "parent_station": "", "stop_url": "", "stop_id": "B16", "stop_desc": "", "stop_name": "62 St", "location_type": "1", "zone_id": ""}, {"stop_lat": "40.619589", "stop_code": "", "stop_lon": "-73.998864", "parent_station": "", "stop_url": "", "stop_id": "B17", "stop_desc": "", "stop_name": "71 St", "location_type": "1", "zone_id": ""}, {"stop_lat": "40.63626", "stop_code": "", "stop_lon": "-73.994791", "parent_station": "", "stop_url": "", "stop_id": "B14", "stop_desc": "", "stop_name": "50 St", "location_type": "1", "zone_id": ""}, {"stop_lat": "40.631435", "stop_code": "", "stop_lon": "-73.995476", "parent_station": "", "stop_url": "", "stop_id": "B15", "stop_desc": "", "stop_name": "55 St", "location_type": "1", "zone_id": ""}, {"stop_lat": "40.646292", "stop_code": "", "stop_lon": "-73.994324", "parent_station": "", "stop_url": "", "stop_id": "B12", "stop_desc": "", "stop_name": "9 Av", "location_type": "1", "zone_id": ""}, {"stop_lat": "40.613501", "stop_code": "", "stop_lon": "-74.00061", "parent_station": "", "stop_url": "", "stop_id": "B18", "stop_desc": "", "stop_name": "79 St", "location_type": "1", "zone_id": ""}, {"stop_lat": "40.607954", "stop_code": "", "stop_lon": "-74.001736", "parent_station": "", "stop_url": "", "stop_id": "B19", "stop_desc": "", "stop_name": "18 Av", "location_type": "1", "zone_id": ""}, {"stop_lat": "40.822181", "stop_code": "", "stop_lon": "-73.896736", "parent_station": "218", "stop_url": "", "stop_id": "218N", "stop_desc": "", "stop_name": "Intervale Av", "location_type": "0", "zone_id": ""}, {"stop_lat": "40.682829", "stop_code": "", "stop_lon": "-73.905249", "parent_station": "", "stop_url": "", "stop_id": "L21", "stop_desc": "", "stop_name": "Bushwick Av - Aberdeen St", "location_type": "1", "zone_id": ""}, {"stop_lat": "40.669367", "stop_code": "", "stop_lon": "-73.901975", "parent_station": "", "stop_url": "", "stop_id": "L25", "stop_desc": "", "stop_name": "Sutter Av", "location_type": "1", "zone_id": ""}, {"stop_lat": "40.675345", "stop_code": "", "stop_lon": "-73.903097", "parent_station": "", "stop_url": "", "stop_id": "L24", "stop_desc": "", "stop_name": "Atlantic Av", "location_type": "1", "zone_id": ""}, {"stop_lat": "40.658733", "stop_code": "", "stop_lon": "-73.899232", "parent_station": "", "stop_url": "", "stop_id": "L27", "stop_desc": "", "stop_name": "New Lots Av", "location_type": "1", "zone_id": ""}, {"stop_lat": "40.664038", "stop_code": "", "stop_lon": "-73.900571", "parent_station": "", "stop_url": "", "stop_id": "L26", "stop_desc": "", "stop_name": "Livonia Av", "location_type": "1", "zone_id": ""}, {"stop_lat": "40.646654", "stop_code": "", "stop_lon": "-73.90185", "parent_station": "", "stop_url": "", "stop_id": "L29", "stop_desc": "", "stop_name": "Canarsie - Rockaway Pkwy", "location_type": "1", "zone_id": ""}, {"stop_lat": "40.650573", "stop_code": "", "stop_lon": "-73.899485", "parent_station": "", "stop_url": "", "stop_id": "L28", "stop_desc": "", "stop_name": "E 105 St", "location_type": "1", "zone_id": ""}, {"stop_lat": "40.85041", "stop_code": "", "stop_lon": "-73.905227", "parent_station": "D07", "stop_url": "", "stop_id": "D07N", "stop_desc": "", "stop_name": "Tremont Av", "location_type": "0", "zone_id": ""}, {"stop_lat": "40.713051", "stop_code": "", "stop_lon": "-74.008811", "parent_station": "", "stop_url": "", "stop_id": "228", "stop_desc": "", "stop_name": "Park Pl", "location_type": "1", "zone_id": ""}, {"stop_lat": "40.814229", "stop_code": "", "stop_lon": "-73.94077", "parent_station": "", "stop_url": "", "stop_id": "224", "stop_desc": "", "stop_name": "135 St", "location_type": "1", "zone_id": ""}, {"stop_lat": "40.512764", "stop_code": "", "stop_lon": "-74.251961", "parent_station": "", "stop_url": "", "stop_id": "S09", "stop_desc": "", "stop_name": "Tottenville", "location_type": "1", "zone_id": ""}, {"stop_lat": "40.808719", "stop_code": "", "stop_lon": "-73.907657", "parent_station": "616", "stop_url": "", "stop_id": "616N", "stop_desc": "", "stop_name": "E 143 St - St Mary's St", "location_type": "0", "zone_id": ""}, {"stop_lat": "40.670343", "stop_code": "", "stop_lon": "-73.959245", "parent_station": "", "stop_url": "", "stop_id": "S04", "stop_desc": "", "stop_name": "Botanic Garden", "location_type": "1", "zone_id": ""}, {"stop_lat": "40.79502", "stop_code": "", "stop_lon": "-73.94425", "parent_station": "623", "stop_url": "", "stop_id": "623N", "stop_desc": "", "stop_name": "110 St", "location_type": "0", "zone_id": ""}, {"stop_lat": "40.858985", "stop_code": "", "stop_lon": "-73.855359", "parent_station": "504", "stop_url": "", "stop_id": "504N", "stop_desc": "", "stop_name": "Pelham Pkwy", "location_type": "0", "zone_id": ""}, {"stop_lat": "40.768296", "stop_code": "", "stop_lon": "-73.981736", "parent_station": "A24", "stop_url": "", "stop_id": "A24S", "stop_desc": "", "stop_name": "59 St - Columbus Circle", "location_type": "0", "zone_id": ""}, {"stop_lat": "40.751431", "stop_code": "", "stop_lon": "-73.976041", "parent_station": "723", "stop_url": "", "stop_id": "723N", "stop_desc": "", "stop_name": "Grand Central - 42 St", "location_type": "0", "zone_id": ""}, {"stop_lat": "40.739864", "stop_code": "", "stop_lon": "-73.986599", "parent_station": "634", "stop_url": "", "stop_id": "634S", "stop_desc": "", "stop_name": "23 St", "location_type": "0", "zone_id": ""}, {"stop_lat": "40.851695", "stop_code": "", "stop_lon": "-73.937969", "parent_station": "A06", "stop_url": "", "stop_id": "A06N", "stop_desc": "", "stop_name": "181 St", "location_type": "0", "zone_id": ""}, {"stop_lat": "40.807566", "stop_code": "", "stop_lon": "-73.91924", "parent_station": "618", "stop_url": "", "stop_id": "618N", "stop_desc": "", "stop_name": "Brook Av", "location_type": "0", "zone_id": ""}, {"stop_lat": "40.737015", "stop_code": "", "stop_lon": "-73.877223", "parent_station": "G12", "stop_url": "", "stop_id": "G12S", "stop_desc": "", "stop_name": "Grand Av - Newtown", "location_type": "0", "zone_id": ""}, {"stop_lat": "40.752287", "stop_code": "", "stop_lon": "-73.993391", "parent_station": "A28", "stop_url": "", "stop_id": "A28S", "stop_desc": "", "stop_name": "34 St - Penn Station", "location_type": "0", "zone_id": ""}, {"stop_lat": "40.682893", "stop_code": "", "stop_lon": "-73.910456", "parent_station": "J28", "stop_url": "", "stop_id": "J28S", "stop_desc": "", "stop_name": "Chauncey St", "location_type": "0", "zone_id": ""}, {"stop_lat": "40.749567", "stop_code": "", "stop_lon": "-73.98795", "parent_station": "R17", "stop_url": "", "stop_id": "R17N", "stop_desc": "", "stop_name": "34 St - Herald Sq", "location_type": "0", "zone_id": ""}, {"stop_lat": "40.667883", "stop_code": "", "stop_lon": "-73.950683", "parent_station": "241", "stop_url": "", "stop_id": "241N", "stop_desc": "", "stop_name": "President St", "location_type": "0", "zone_id": ""}, {"stop_lat": "40.692404", "stop_code": "", "stop_lon": "-73.990151", "parent_station": "", "stop_url": "", "stop_id": "423", "stop_desc": "", "stop_name": "Borough Hall", "location_type": "1", "zone_id": ""}, {"stop_lat": "40.61741", "stop_code": "", "stop_lon": "-73.985026", "parent_station": "N06", "stop_url": "", "stop_id": "N06N", "stop_desc": "", "stop_name": "20 Av", "location_type": "0", "zone_id": ""}, {"stop_lat": "40.726227", "stop_code": "", "stop_lon": "-74.003739", "parent_station": "A33", "stop_url": "", "stop_id": "A33N", "stop_desc": "", "stop_name": "Spring St", "location_type": "0", "zone_id": ""}, {"stop_lat": "40.691324", "stop_code": "", "stop_lon": "-73.867139", "parent_station": "J17", "stop_url": "", "stop_id": "J17N", "stop_desc": "", "stop_name": "75 St", "location_type": "0", "zone_id": ""}, {"stop_lat": "40.648939", "stop_code": "", "stop_lon": "-74.010006", "parent_station": "R39", "stop_url": "", "stop_id": "R39N", "stop_desc": "", "stop_name": "45 St", "location_type": "0", "zone_id": ""}, {"stop_lat": "40.718331", "stop_code": "", "stop_lon": "-73.837324", "parent_station": "", "stop_url": "", "stop_id": "F07", "stop_desc": "", "stop_name": "75 Av", "location_type": "1", "zone_id": ""}, {"stop_lat": "40.714441", "stop_code": "", "stop_lon": "-73.831008", "parent_station": "", "stop_url": "", "stop_id": "F06", "stop_desc": "", "stop_name": "Kew Gardens - Union Tpke", "location_type": "1", "zone_id": ""}, {"stop_lat": "40.712646", "stop_code": "", "stop_lon": "-73.783817", "parent_station": "", "stop_url": "", "stop_id": "F01", "stop_desc": "", "stop_name": "Jamaica - 179 St", "location_type": "1", "zone_id": ""}, {"stop_lat": "40.707564", "stop_code": "", "stop_lon": "-73.803326", "parent_station": "", "stop_url": "", "stop_id": "F03", "stop_desc": "", "stop_name": "Parsons Blvd", "location_type": "1", "zone_id": ""}, {"stop_lat": "40.747846", "stop_code": "", "stop_lon": "-73.946", "parent_station": "", "stop_url": "", "stop_id": "F09", "stop_desc": "", "stop_name": "23 St - Ely Av", "location_type": "1", "zone_id": ""}, {"stop_lat": "40.778453", "stop_code": "", "stop_lon": "-73.98197", "parent_station": "123", "stop_url": "", "stop_id": "123S", "stop_desc": "", "stop_name": "72 St", "location_type": "0", "zone_id": ""}, {"stop_lat": "40.661614", "stop_code": "", "stop_lon": "-73.962246", "parent_station": "D26", "stop_url": "", "stop_id": "D26N", "stop_desc": "", "stop_name": "Prospect Park", "location_type": "0", "zone_id": ""}, {"stop_lat": "40.639967", "stop_code": "", "stop_lon": "-73.948411", "parent_station": "246", "stop_url": "", "stop_id": "246N", "stop_desc": "", "stop_name": "Newkirk Av", "location_type": "0", "zone_id": ""}, {"stop_lat": "40.725297", "stop_code": "", "stop_lon": "-73.996204", "parent_station": "D21", "stop_url": "", "stop_id": "D21N", "stop_desc": "", "stop_name": "Broadway - Lafayette St", "location_type": "0", "zone_id": ""}, {"stop_lat": "40.87785", "stop_code": "", "stop_lon": "-73.866256", "parent_station": "208", "stop_url": "", "stop_id": "208S", "stop_desc": "", "stop_name": "Gun Hill Rd", "location_type": "0", "zone_id": ""}, {"stop_lat": "40.742454", "stop_code": "", "stop_lon": "-73.882017", "parent_station": "G13", "stop_url": "", "stop_id": "G13S", "stop_desc": "", "stop_name": "Elmhurst Av", "location_type": "0", "zone_id": ""}, {"stop_lat": "40.671987", "stop_code": "", "stop_lon": "-73.964375", "parent_station": "", "stop_url": "", "stop_id": "238", "stop_desc": "", "stop_name": "Eastern Pkwy - Brooklyn Museum", "location_type": "1", "zone_id": ""}, {"stop_lat": "40.670682", "stop_code": "", "stop_lon": "-73.958131", "parent_station": "", "stop_url": "", "stop_id": "239", "stop_desc": "", "stop_name": "Franklin Av", "location_type": "1", "zone_id": ""}, {"stop_lat": "40.688246", "stop_code": "", "stop_lon": "-73.980492", "parent_station": "", "stop_url": "", "stop_id": "234", "stop_desc": "", "stop_name": "Nevins St", "location_type": "1", "zone_id": ""}, {"stop_lat": "40.684359", "stop_code": "", "stop_lon": "-73.977666", "parent_station": "", "stop_url": "", "stop_id": "235", "stop_desc": "", "stop_name": "Atlantic Av", "location_type": "1", "zone_id": ""}, {"stop_lat": "40.680829", "stop_code": "", "stop_lon": "-73.975098", "parent_station": "", "stop_url": "", "stop_id": "236", "stop_desc": "", "stop_name": "Bergen St", "location_type": "1", "zone_id": ""}, {"stop_lat": "40.675235", "stop_code": "", "stop_lon": "-73.971046", "parent_station": "", "stop_url": "", "stop_id": "237", "stop_desc": "", "stop_name": "Grand Army Plaza", "location_type": "1", "zone_id": ""}, {"stop_lat": "40.690545", "stop_code": "", "stop_lon": "-73.985065", "parent_station": "", "stop_url": "", "stop_id": "233", "stop_desc": "", "stop_name": "Hoyt St", "location_type": "1", "zone_id": ""}, {"stop_lat": "40.627915", "stop_code": "", "stop_lon": "-74.075162", "parent_station": "S29", "stop_url": "", "stop_id": "S29N", "stop_desc": "", "stop_name": "Stapleton", "location_type": "0", "zone_id": ""}, {"stop_lat": "40.702068", "stop_code": "", "stop_lon": "-74.013664", "parent_station": "", "stop_url": "", "stop_id": "142", "stop_desc": "", "stop_name": "South Ferry", "location_type": "1", "zone_id": ""}, {"stop_lat": "40.699743", "stop_code": "", "stop_lon": "-73.986885", "parent_station": "F18", "stop_url": "", "stop_id": "F18N", "stop_desc": "", "stop_name": "York St", "location_type": "0", "zone_id": ""}, {"stop_lat": "40.793919", "stop_code": "", "stop_lon": "-73.972323", "parent_station": "", "stop_url": "", "stop_id": "120", "stop_desc": "", "stop_name": "96 St", "location_type": "1", "zone_id": ""}, {"stop_lat": "40.685951", "stop_code": "", "stop_lon": "-73.825798", "parent_station": "A65", "stop_url": "", "stop_id": "A65S", "stop_desc": "", "stop_name": "Ozone Park - Lefferts Blvd", "location_type": "0", "zone_id": ""}, {"stop_lat": "40.744065", "stop_code": "", "stop_lon": "-73.949724", "parent_station": "G24", "stop_url": "", "stop_id": "G24N", "stop_desc": "", "stop_name": "21 St", "location_type": "0", "zone_id": ""}, {"stop_lat": "40.611815", "stop_code": "", "stop_lon": "-73.981848", "parent_station": "N07", "stop_url": "", "stop_id": "N07N", "stop_desc": "", "stop_name": "Bay Pkwy", "location_type": "0", "zone_id": ""}, {"stop_lat": "40.692435", "stop_code": "", "stop_lon": "-73.86001", "parent_station": "J16", "stop_url": "", "stop_id": "J16S", "stop_desc": "", "stop_name": "85 St - Forest Pkwy", "location_type": "0", "zone_id": ""}, {"stop_lat": "40.7906", "stop_code": "", "stop_lon": "-73.947478", "parent_station": "624", "stop_url": "", "stop_id": "624N", "stop_desc": "", "stop_name": "103 St", "location_type": "0", "zone_id": ""}, {"stop_lat": "40.82388", "stop_code": "", "stop_lon": "-73.93647", "parent_station": "301", "stop_url": "", "stop_id": "301S", "stop_desc": "", "stop_name": "Harlem - 148 St", "location_type": "0", "zone_id": ""}, {"stop_lat": "40.743132", "stop_code": "", "stop_lon": "-73.918435", "parent_station": "714", "stop_url": "", "stop_id": "714S", "stop_desc": "", "stop_name": "46 St", "location_type": "0", "zone_id": ""}, {"stop_lat": "40.834041", "stop_code": "", "stop_lon": "-73.94489", "parent_station": "113", "stop_url": "", "stop_id": "113S", "stop_desc": "", "stop_name": "157 St", "location_type": "0", "zone_id": ""}, {"stop_lat": "40.592721", "stop_code": "", "stop_lon": "-73.97823", "parent_station": "N10", "stop_url": "", "stop_id": "N10N", "stop_desc": "", "stop_name": "86 St", "location_type": "0", "zone_id": ""}, {"stop_lat": "40.760167", "stop_code": "", "stop_lon": "-73.975224", "parent_station": "", "stop_url": "", "stop_id": "F12", "stop_desc": "", "stop_name": "5 Av/53 St", "location_type": "1", "zone_id": ""}, {"stop_lat": "40.713715", "stop_code": "", "stop_lon": "-73.990173", "parent_station": "", "stop_url": "", "stop_id": "F16", "stop_desc": "", "stop_name": "East Broadway", "location_type": "1", "zone_id": ""}, {"stop_lat": "40.723402", "stop_code": "", "stop_lon": "-73.989938", "parent_station": "", "stop_url": "", "stop_id": "F14", "stop_desc": "", "stop_name": "2 Av", "location_type": "1", "zone_id": ""}, {"stop_lat": "40.68637", "stop_code": "", "stop_lon": "-73.916559", "parent_station": "J29", "stop_url": "", "stop_id": "J29S", "stop_desc": "", "stop_name": "Halsey St", "location_type": "0", "zone_id": ""}, {"stop_lat": "40.754672", "stop_code": "", "stop_lon": "-73.986754", "parent_station": "R16", "stop_url": "", "stop_id": "R16N", "stop_desc": "", "stop_name": "Times Sq - 42 St", "location_type": "0", "zone_id": ""}, {"stop_lat": "40.713065", "stop_code": "", "stop_lon": "-74.004131", "parent_station": "640", "stop_url": "", "stop_id": "640S", "stop_desc": "", "stop_name": "Brooklyn Bridge - City Hall", "location_type": "0", "zone_id": ""}, {"stop_lat": "40.779492", "stop_code": "", "stop_lon": "-73.955589", "parent_station": "", "stop_url": "", "stop_id": "626", "stop_desc": "", "stop_name": "86 St", "location_type": "1", "zone_id": ""}, {"stop_lat": "40.785672", "stop_code": "", "stop_lon": "-73.95107", "parent_station": "", "stop_url": "", "stop_id": "625", "stop_desc": "", "stop_name": "96 St", "location_type": "1", "zone_id": ""}, {"stop_lat": "40.762526", "stop_code": "", "stop_lon": "-73.967967", "parent_station": "", "stop_url": "", "stop_id": "629", "stop_desc": "", "stop_name": "59 St", "location_type": "1", "zone_id": ""}, {"stop_lat": "40.768141", "stop_code": "", "stop_lon": "-73.96387", "parent_station": "", "stop_url": "", "stop_id": "628", "stop_desc": "", "stop_name": "68 St - Hunter College", "location_type": "1", "zone_id": ""}, {"stop_lat": "40.759145", "stop_code": "", "stop_lon": "-73.95326", "parent_station": "B06", "stop_url": "", "stop_id": "B06S", "stop_desc": "", "stop_name": "Roosevelt Island", "location_type": "0", "zone_id": ""}, {"stop_lat": "40.56511", "stop_code": "", "stop_lon": "-74.12632", "parent_station": "S21", "stop_url": "", "stop_id": "S21N", "stop_desc": "", "stop_name": "Oakwood Heights", "location_type": "0", "zone_id": ""}, {"stop_lat": "40.783934", "stop_code": "", "stop_lon": "-73.979917", "parent_station": "122", "stop_url": "", "stop_id": "122S", "stop_desc": "", "stop_name": "79 St", "location_type": "0", "zone_id": ""}, {"stop_lat": "40.655292", "stop_code": "", "stop_lon": "-73.961495", "parent_station": "D27", "stop_url": "", "stop_id": "D27N", "stop_desc": "", "stop_name": "Parkside Av", "location_type": "0", "zone_id": ""}, {"stop_lat": "40.70026", "stop_code": "", "stop_lon": "-73.941126", "parent_station": "", "stop_url": "", "stop_id": "M12", "stop_desc": "", "stop_name": "Flushing Av", "location_type": "1", "zone_id": ""}, {"stop_lat": "40.70687", "stop_code": "", "stop_lon": "-73.953431", "parent_station": "", "stop_url": "", "stop_id": "M14", "stop_desc": "", "stop_name": "Hewes St", "location_type": "1", "zone_id": ""}, {"stop_lat": "40.72028", "stop_code": "", "stop_lon": "-73.993915", "parent_station": "", "stop_url": "", "stop_id": "M19", "stop_desc": "", "stop_name": "Bowery", "location_type": "1", "zone_id": ""}, {"stop_lat": "40.621319", "stop_code": "", "stop_lon": "-74.071402", "parent_station": "S28", "stop_url": "", "stop_id": "S28N", "stop_desc": "", "stop_name": "Clifton", "location_type": "0", "zone_id": ""}, {"stop_lat": "40.903125", "stop_code": "", "stop_lon": "-73.85062", "parent_station": "", "stop_url": "", "stop_id": "201", "stop_desc": "", "stop_name": "Wakefield - 241 St", "location_type": "1", "zone_id": ""}, {"stop_lat": "40.883895", "stop_code": "", "stop_lon": "-73.862633", "parent_station": "", "stop_url": "", "stop_id": "207", "stop_desc": "", "stop_name": "219 St", "location_type": "1", "zone_id": ""}, {"stop_lat": "40.888022", "stop_code": "", "stop_lon": "-73.860341", "parent_station": "", "stop_url": "", "stop_id": "206", "stop_desc": "", "stop_name": "225 St", "location_type": "1", "zone_id": ""}, {"stop_lat": "40.871356", "stop_code": "", "stop_lon": "-73.867164", "parent_station": "", "stop_url": "", "stop_id": "209", "stop_desc": "", "stop_name": "Burke Av", "location_type": "1", "zone_id": ""}, {"stop_lat": "40.57348", "stop_code": "", "stop_lon": "-74.11721", "parent_station": "", "stop_url": "", "stop_id": "S22", "stop_desc": "", "stop_name": "New Dorp", "location_type": "1", "zone_id": ""}, {"stop_lat": "40.578965", "stop_code": "", "stop_lon": "-74.109704", "parent_station": "", "stop_url": "", "stop_id": "S23", "stop_desc": "", "stop_name": "Grant City", "location_type": "1", "zone_id": ""}, {"stop_lat": "40.5564", "stop_code": "", "stop_lon": "-74.136907", "parent_station": "", "stop_url": "", "stop_id": "S20", "stop_desc": "", "stop_name": "Bay Terrace", "location_type": "1", "zone_id": ""}, {"stop_lat": "40.874811", "stop_code": "", "stop_lon": "-73.878855", "parent_station": "D01", "stop_url": "", "stop_id": "D01S", "stop_desc": "", "stop_name": "Norwood - 205 St", "location_type": "0", "zone_id": ""}, {"stop_lat": "40.726523", "stop_code": "", "stop_lon": "-73.852719", "parent_station": "G09", "stop_url": "", "stop_id": "G09N", "stop_desc": "", "stop_name": "67 Av", "location_type": "0", "zone_id": ""}, {"stop_lat": "40.840295", "stop_code": "", "stop_lon": "-73.880049", "parent_station": "214", "stop_url": "", "stop_id": "214N", "stop_desc": "", "stop_name": "West Farms Sq - E Tremont Av", "location_type": "0", "zone_id": ""}, {"stop_lat": "40.688484", "stop_code": "", "stop_lon": "-73.985001", "parent_station": "A42", "stop_url": "", "stop_id": "A42N", "stop_desc": "", "stop_name": "Hoyt - Schermerhorn Sts", "location_type": "0", "zone_id": ""}, {"stop_lat": "40.661453", "stop_code": "", "stop_lon": "-73.916327", "parent_station": "252", "stop_url": "", "stop_id": "252S", "stop_desc": "", "stop_name": "Saratoga Av", "location_type": "0", "zone_id": ""}, {"stop_lat": "40.684331", "stop_code": "", "stop_lon": "-73.832163", "parent_station": "A64", "stop_url": "", "stop_id": "A64N", "stop_desc": "", "stop_name": "111 St", "location_type": "0", "zone_id": ""}, {"stop_lat": "40.6941", "stop_code": "", "stop_lon": "-73.991777", "parent_station": "R28", "stop_url": "", "stop_id": "R28S", "stop_desc": "", "stop_name": "Court St", "location_type": "0", "zone_id": ""}, {"stop_lat": "40.754622", "stop_code": "", "stop_lon": "-73.845625", "parent_station": "702", "stop_url": "", "stop_id": "702N", "stop_desc": "", "stop_name": "Mets - Willets Point", "location_type": "0", "zone_id": ""}, {"stop_lat": "40.624842", "stop_code": "", "stop_lon": "-73.996353", "parent_station": "N04", "stop_url": "", "stop_id": "N04N", "stop_desc": "", "stop_name": "New Utrecht Av", "location_type": "0", "zone_id": ""}, {"stop_lat": "40.676992", "stop_code": "", "stop_lon": "-73.898654", "parent_station": "J24", "stop_url": "", "stop_id": "J24S", "stop_desc": "", "stop_name": "Alabama Av", "location_type": "0", "zone_id": ""}, {"stop_lat": "40.855225", "stop_code": "", "stop_lon": "-73.929412", "parent_station": "110", "stop_url": "", "stop_id": "110N", "stop_desc": "", "stop_name": "191 St", "location_type": "0", "zone_id": ""}, {"stop_lat": "40.788644", "stop_code": "", "stop_lon": "-73.976218", "parent_station": "121", "stop_url": "", "stop_id": "121S", "stop_desc": "", "stop_name": "86 St", "location_type": "0", "zone_id": ""}, {"stop_lat": "40.869526", "stop_code": "", "stop_lon": "-73.846384", "parent_station": "", "stop_url": "", "stop_id": "503", "stop_desc": "", "stop_name": "Gun Hill Rd", "location_type": "1", "zone_id": ""}, {"stop_lat": "40.8883", "stop_code": "", "stop_lon": "-73.830834", "parent_station": "", "stop_url": "", "stop_id": "501", "stop_desc": "", "stop_name": "Eastchester - Dyre Av", "location_type": "1", "zone_id": ""}, {"stop_lat": "40.757107", "stop_code": "", "stop_lon": "-73.97192", "parent_station": "", "stop_url": "", "stop_id": "630", "stop_desc": "", "stop_name": "51 St", "location_type": "1", "zone_id": ""}, {"stop_lat": "40.746081", "stop_code": "", "stop_lon": "-73.982076", "parent_station": "", "stop_url": "", "stop_id": "632", "stop_desc": "", "stop_name": "33 St", "location_type": "1", "zone_id": ""}, {"stop_lat": "40.743781", "stop_code": "", "stop_lon": "-73.924016", "parent_station": "715", "stop_url": "", "stop_id": "715S", "stop_desc": "", "stop_name": "40 St", "location_type": "0", "zone_id": ""}, {"stop_lat": "40.666235", "stop_code": "", "stop_lon": "-73.884079", "parent_station": "", "stop_url": "", "stop_id": "257", "stop_desc": "", "stop_name": "New Lots Av", "location_type": "1", "zone_id": ""}, {"stop_lat": "40.702762", "stop_code": "", "stop_lon": "-73.90774", "parent_station": "", "stop_url": "", "stop_id": "M06", "stop_desc": "", "stop_name": "Seneca Av", "location_type": "1", "zone_id": ""}, {"stop_lat": "40.706186", "stop_code": "", "stop_lon": "-73.895877", "parent_station": "", "stop_url": "", "stop_id": "M04", "stop_desc": "", "stop_name": "Fresh Pond Rd", "location_type": "1", "zone_id": ""}, {"stop_lat": "40.704423", "stop_code": "", "stop_lon": "-73.903077", "parent_station": "", "stop_url": "", "stop_id": "M05", "stop_desc": "", "stop_name": "Forest Av", "location_type": "1", "zone_id": ""}, {"stop_lat": "40.711396", "stop_code": "", "stop_lon": "-73.889601", "parent_station": "", "stop_url": "", "stop_id": "M01", "stop_desc": "", "stop_name": "Middle Village - Metropolitan Av", "location_type": "1", "zone_id": ""}, {"stop_lat": "40.677316", "stop_code": "", "stop_lon": "-73.98311", "parent_station": "R32", "stop_url": "", "stop_id": "R32S", "stop_desc": "", "stop_name": "Union St", "location_type": "0", "zone_id": ""}, {"stop_lat": "40.829993", "stop_code": "", "stop_lon": "-73.891865", "parent_station": "", "stop_url": "", "stop_id": "216", "stop_desc": "", "stop_name": "Freeman St", "location_type": "1", "zone_id": ""}, {"stop_lat": "40.824073", "stop_code": "", "stop_lon": "-73.893064", "parent_station": "", "stop_url": "", "stop_id": "217", "stop_desc": "", "stop_name": "Simpson St", "location_type": "1", "zone_id": ""}, {"stop_lat": "40.848828", "stop_code": "", "stop_lon": "-73.868457", "parent_station": "", "stop_url": "", "stop_id": "212", "stop_desc": "", "stop_name": "Bronx Park East", "location_type": "1", "zone_id": ""}, {"stop_lat": "40.841894", "stop_code": "", "stop_lon": "-73.873488", "parent_station": "", "stop_url": "", "stop_id": "213", "stop_desc": "", "stop_name": "E 180 St", "location_type": "1", "zone_id": ""}, {"stop_lat": "40.865462", "stop_code": "", "stop_lon": "-73.867352", "parent_station": "", "stop_url": "", "stop_id": "210", "stop_desc": "", "stop_name": "Allerton Av", "location_type": "1", "zone_id": ""}, {"stop_lat": "40.857192", "stop_code": "", "stop_lon": "-73.867615", "parent_station": "", "stop_url": "", "stop_id": "211", "stop_desc": "", "stop_name": "Pelham Pkwy", "location_type": "1", "zone_id": ""}, {"stop_lat": "40.681711", "stop_code": "", "stop_lon": "-73.837683", "parent_station": "A63", "stop_url": "", "stop_id": "A63N", "stop_desc": "", "stop_name": "104 St", "location_type": "0", "zone_id": ""}, {"stop_lat": "40.833226", "stop_code": "", "stop_lon": "-73.860816", "parent_station": "608", "stop_url": "", "stop_id": "608N", "stop_desc": "", "stop_name": "Parkchester", "location_type": "0", "zone_id": ""}, {"stop_lat": "40.731352", "stop_code": "", "stop_lon": "-73.954449", "parent_station": "G26", "stop_url": "", "stop_id": "G26N", "stop_desc": "", "stop_name": "Greenpoint Av", "location_type": "0", "zone_id": ""}, {"stop_lat": "40.655144", "stop_code": "", "stop_lon": "-74.003549", "parent_station": "R36", "stop_url": "", "stop_id": "R36N", "stop_desc": "", "stop_name": "36 St", "location_type": "0", "zone_id": ""}, {"stop_lat": "40.620671", "stop_code": "", "stop_lon": "-73.990414", "parent_station": "N05", "stop_url": "", "stop_id": "N05S", "stop_desc": "", "stop_name": "18 Av", "location_type": "0", "zone_id": ""}, {"stop_lat": "40.836488", "stop_code": "", "stop_lon": "-73.847036", "parent_station": "606", "stop_url": "", "stop_id": "606N", "stop_desc": "", "stop_name": "Zerega Av", "location_type": "0", "zone_id": ""}, {"stop_lat": "40.721691", "stop_code": "", "stop_lon": "-73.844521", "parent_station": "G08", "stop_url": "", "stop_id": "G08N", "stop_desc": "", "stop_name": "Forest Hills - 71 Av", "location_type": "0", "zone_id": ""}, {"stop_lat": "40.744587", "stop_code": "", "stop_lon": "-73.930997", "parent_station": "716", "stop_url": "", "stop_id": "716S", "stop_desc": "", "stop_name": "33 St", "location_type": "0", "zone_id": ""}, {"stop_lat": "40.770258", "stop_code": "", "stop_lon": "-73.917843", "parent_station": "R03", "stop_url": "", "stop_id": "R03N", "stop_desc": "", "stop_name": "Astoria Blvd", "location_type": "0", "zone_id": ""}, {"stop_lat": "40.69218", "stop_code": "", "stop_lon": "-73.985942", "parent_station": "R29", "stop_url": "", "stop_id": "R29S", "stop_desc": "", "stop_name": "Jay St - MetroTech", "location_type": "0", "zone_id": ""}, {"stop_lat": "40.7596", "stop_code": "", "stop_lon": "-73.83003", "parent_station": "701", "stop_url": "", "stop_id": "701N", "stop_desc": "", "stop_name": "Flushing - Main St", "location_type": "0", "zone_id": ""}, {"stop_lat": "40.878663", "stop_code": "", "stop_lon": "-73.838591", "parent_station": "", "stop_url": "", "stop_id": "502", "stop_desc": "", "stop_name": "Baychester Av", "location_type": "1", "zone_id": ""}, {"stop_lat": "40.656652", "stop_code": "", "stop_lon": "-73.9502", "parent_station": "243", "stop_url": "", "stop_id": "243S", "stop_desc": "", "stop_name": "Winthrop St", "location_type": "0", "zone_id": ""}, {"stop_lat": "40.839892", "stop_code": "", "stop_lon": "-73.842952", "parent_station": "", "stop_url": "", "stop_id": "604", "stop_desc": "", "stop_name": "Westchester Sq - E Tremont Av", "location_type": "1", "zone_id": ""}, {"stop_lat": "40.834255", "stop_code": "", "stop_lon": "-73.851222", "parent_station": "", "stop_url": "", "stop_id": "607", "stop_desc": "", "stop_name": "Castle Hill Av", "location_type": "1", "zone_id": ""}, {"stop_lat": "40.852462", "stop_code": "", "stop_lon": "-73.828121", "parent_station": "", "stop_url": "", "stop_id": "601", "stop_desc": "", "stop_name": "Pelham Bay Park", "location_type": "1", "zone_id": ""}, {"stop_lat": "40.595246", "stop_code": "", "stop_lon": "-73.955161", "parent_station": "D38", "stop_url": "", "stop_id": "D38N", "stop_desc": "", "stop_name": "Neck Rd", "location_type": "0", "zone_id": ""}, {"stop_lat": "40.843863", "stop_code": "", "stop_lon": "-73.836322", "parent_station": "", "stop_url": "", "stop_id": "603", "stop_desc": "", "stop_name": "Middletown Rd", "location_type": "1", "zone_id": ""}, {"stop_lat": "40.84681", "stop_code": "", "stop_lon": "-73.832569", "parent_station": "", "stop_url": "", "stop_id": "602", "stop_desc": "", "stop_name": "Buhre Av", "location_type": "1", "zone_id": ""}, {"stop_lat": "40.831509", "stop_code": "", "stop_lon": "-73.867618", "parent_station": "", "stop_url": "", "stop_id": "609", "stop_desc": "", "stop_name": "St Lawrence Av", "location_type": "1", "zone_id": ""}, {"stop_lat": "40.67705", "stop_code": "", "stop_lon": "-73.972367", "parent_station": "D25", "stop_url": "", "stop_id": "D25N", "stop_desc": "", "stop_name": "7 Av", "location_type": "0", "zone_id": ""}, {"stop_lat": "40.873244", "stop_code": "", "stop_lon": "-73.887138", "parent_station": "D03", "stop_url": "", "stop_id": "D03S", "stop_desc": "", "stop_name": "Bedford Park Blvd", "location_type": "0", "zone_id": ""}, {"stop_lat": "40.679947", "stop_code": "", "stop_lon": "-73.884639", "parent_station": "", "stop_url": "", "stop_id": "J22", "stop_desc": "", "stop_name": "Cleveland St", "location_type": "1", "zone_id": ""}, {"stop_lat": "40.68141", "stop_code": "", "stop_lon": "-73.880039", "parent_station": "", "stop_url": "", "stop_id": "J21", "stop_desc": "", "stop_name": "Norwood Av", "location_type": "1", "zone_id": ""}, {"stop_lat": "40.683194", "stop_code": "", "stop_lon": "-73.873785", "parent_station": "", "stop_url": "", "stop_id": "J20", "stop_desc": "", "stop_name": "Crescent St", "location_type": "1", "zone_id": ""}, {"stop_lat": "40.756312", "stop_code": "", "stop_lon": "-73.913333", "parent_station": "G18", "stop_url": "", "stop_id": "G18S", "stop_desc": "", "stop_name": "46 St", "location_type": "0", "zone_id": ""}, {"stop_lat": "40.632836", "stop_code": "", "stop_lon": "-73.947642", "parent_station": "", "stop_url": "", "stop_id": "247", "stop_desc": "", "stop_name": "Flatbush Av - Brooklyn College", "location_type": "1", "zone_id": ""}, {"stop_lat": "40.694568", "stop_code": "", "stop_lon": "-73.949046", "parent_station": "G32", "stop_url": "", "stop_id": "G32N", "stop_desc": "", "stop_name": "Myrtle - Willoughby Avs", "location_type": "0", "zone_id": ""}, {"stop_lat": "40.764811", "stop_code": "", "stop_lon": "-73.973347", "parent_station": "R13", "stop_url": "", "stop_id": "R13S", "stop_desc": "", "stop_name": "5 Av/59 St", "location_type": "0", "zone_id": ""}, {"stop_lat": "40.748973", "stop_code": "", "stop_lon": "-73.937243", "parent_station": "G21", "stop_url": "", "stop_id": "G21N", "stop_desc": "", "stop_name": "Queens Plaza", "location_type": "0", "zone_id": ""}, {"stop_lat": "40.756879", "stop_code": "", "stop_lon": "-73.92074", "parent_station": "", "stop_url": "", "stop_id": "G19", "stop_desc": "", "stop_name": "Steinway St", "location_type": "1", "zone_id": ""}, {"stop_lat": "40.752885", "stop_code": "", "stop_lon": "-73.906006", "parent_station": "", "stop_url": "", "stop_id": "G16", "stop_desc": "", "stop_name": "Northern Blvd", "location_type": "1", "zone_id": ""}, {"stop_lat": "40.749669", "stop_code": "", "stop_lon": "-73.898453", "parent_station": "", "stop_url": "", "stop_id": "G15", "stop_desc": "", "stop_name": "65 St", "location_type": "1", "zone_id": ""}, {"stop_lat": "40.635064", "stop_code": "", "stop_lon": "-74.011719", "parent_station": "N02", "stop_url": "", "stop_id": "N02S", "stop_desc": "", "stop_name": "8 Av", "location_type": "0", "zone_id": ""}, {"stop_lat": "40.660397", "stop_code": "", "stop_lon": "-73.998091", "parent_station": "R35", "stop_url": "", "stop_id": "R35N", "stop_desc": "", "stop_name": "25 St", "location_type": "0", "zone_id": ""}, {"stop_lat": "40.800603", "stop_code": "", "stop_lon": "-73.958161", "parent_station": "A17", "stop_url": "", "stop_id": "A17N", "stop_desc": "", "stop_name": "Cathedral Pkwy (110 St)", "location_type": "0", "zone_id": ""}, {"stop_lat": "40.697418", "stop_code": "", "stop_lon": "-73.836345", "parent_station": "J13", "stop_url": "", "stop_id": "J13S", "stop_desc": "", "stop_name": "111 St", "location_type": "0", "zone_id": ""}, {"stop_lat": "40.826525", "stop_code": "", "stop_lon": "-73.886283", "parent_station": "", "stop_url": "", "stop_id": "612", "stop_desc": "", "stop_name": "Whitlock Av", "location_type": "1", "zone_id": ""}, {"stop_lat": "40.820948", "stop_code": "", "stop_lon": "-73.890549", "parent_station": "", "stop_url": "", "stop_id": "613", "stop_desc": "", "stop_name": "Hunts Point Av", "location_type": "1", "zone_id": ""}, {"stop_lat": "40.829521", "stop_code": "", "stop_lon": "-73.874516", "parent_station": "", "stop_url": "", "stop_id": "610", "stop_desc": "", "stop_name": "Morrison Av- Sound View", "location_type": "1", "zone_id": ""}, {"stop_lat": "40.828584", "stop_code": "", "stop_lon": "-73.879159", "parent_station": "", "stop_url": "", "stop_id": "611", "stop_desc": "", "stop_name": "Elder Av", "location_type": "1", "zone_id": ""}, {"stop_lat": "40.576312", "stop_code": "", "stop_lon": "-73.968501", "parent_station": "", "stop_url": "", "stop_id": "D41", "stop_desc": "", "stop_name": "Ocean Pkwy", "location_type": "1", "zone_id": ""}, {"stop_lat": "40.577621", "stop_code": "", "stop_lon": "-73.961376", "parent_station": "", "stop_url": "", "stop_id": "D40", "stop_desc": "", "stop_name": "Brighton Beach", "location_type": "1", "zone_id": ""}, {"stop_lat": "40.693342", "stop_code": "", "stop_lon": "-73.928814", "parent_station": "J31", "stop_url": "", "stop_id": "J31N", "stop_desc": "", "stop_name": "Kosciusko St", "location_type": "0", "zone_id": ""}, {"stop_lat": "40.650527", "stop_code": "", "stop_lon": "-73.962982", "parent_station": "D28", "stop_url": "", "stop_id": "D28N", "stop_desc": "", "stop_name": "Church Av", "location_type": "0", "zone_id": ""}, {"stop_lat": "40.680303", "stop_code": "", "stop_lon": "-73.995048", "parent_station": "F21", "stop_url": "", "stop_id": "F21S", "stop_desc": "", "stop_name": "Carroll St", "location_type": "0", "zone_id": ""}, {"stop_lat": "40.668234", "stop_code": "", "stop_lon": "-73.834058", "parent_station": "H02", "stop_url": "", "stop_id": "H02S", "stop_desc": "", "stop_name": "Aqueduct - N Conduit Av", "location_type": "0", "zone_id": ""}, {"stop_lat": "40.680429", "stop_code": "", "stop_lon": "-73.843853", "parent_station": "A61", "stop_url": "", "stop_id": "A61N", "stop_desc": "", "stop_name": "Rockaway Blvd", "location_type": "0", "zone_id": ""}, {"stop_lat": "40.68963", "stop_code": "", "stop_lon": "-73.92227", "parent_station": "", "stop_url": "", "stop_id": "J30", "stop_desc": "", "stop_name": "Gates Av", "location_type": "1", "zone_id": ""}, {"stop_lat": "40.752039", "stop_code": "", "stop_lon": "-73.928781", "parent_station": "G20", "stop_url": "", "stop_id": "G20N", "stop_desc": "", "stop_name": "36 St", "location_type": "0", "zone_id": ""}, {"stop_lat": "40.631386", "stop_code": "", "stop_lon": "-74.005351", "parent_station": "N03", "stop_url": "", "stop_id": "N03S", "stop_desc": "", "stop_name": "Fort Hamilton Pkwy", "location_type": "0", "zone_id": ""}, {"stop_lat": "40.740893", "stop_code": "", "stop_lon": "-74.00169", "parent_station": "", "stop_url": "", "stop_id": "A31", "stop_desc": "", "stop_name": "14 St", "location_type": "1", "zone_id": ""}, {"stop_lat": "40.665414", "stop_code": "", "stop_lon": "-73.992872", "parent_station": "R34", "stop_url": "", "stop_id": "R34S", "stop_desc": "", "stop_name": "Prospect Av", "location_type": "0", "zone_id": ""}, {"stop_lat": "40.700492", "stop_code": "", "stop_lon": "-73.828294", "parent_station": "J12", "stop_url": "", "stop_id": "J12S", "stop_desc": "", "stop_name": "121 St", "location_type": "0", "zone_id": ""}, {"stop_lat": "40.700486", "stop_code": "", "stop_lon": "-73.807969", "parent_station": "G06", "stop_url": "", "stop_id": "G06N", "stop_desc": "", "stop_name": "Sutphin Blvd - Archer Av - JFK Airport", "location_type": "0", "zone_id": ""}, {"stop_lat": "40.622687", "stop_code": "", "stop_lon": "-74.028398", "parent_station": "", "stop_url": "", "stop_id": "R44", "stop_desc": "", "stop_name": "86 St", "location_type": "1", "zone_id": ""}, {"stop_lat": "40.634967", "stop_code": "", "stop_lon": "-74.023377", "parent_station": "", "stop_url": "", "stop_id": "R42", "stop_desc": "", "stop_name": "Bay Ridge Av", "location_type": "1", "zone_id": ""}, {"stop_lat": "40.702147", "stop_code": "", "stop_lon": "-73.801109", "parent_station": "", "stop_url": "", "stop_id": "G05", "stop_desc": "", "stop_name": "Jamaica Center - Parsons/Archer", "location_type": "1", "zone_id": ""}, {"stop_lat": "40.775036", "stop_code": "", "stop_lon": "-73.912034", "parent_station": "R01", "stop_url": "", "stop_id": "R01N", "stop_desc": "", "stop_name": "Astoria - Ditmars Blvd", "location_type": "0", "zone_id": ""}, {"stop_lat": "40.746848", "stop_code": "", "stop_lon": "-73.891394", "parent_station": "710", "stop_url": "", "stop_id": "710N", "stop_desc": "", "stop_name": "74 St - Broadway", "location_type": "0", "zone_id": ""}, {"stop_lat": "40.689627", "stop_code": "", "stop_lon": "-73.953522", "parent_station": "G33", "stop_url": "", "stop_id": "G33N", "stop_desc": "", "stop_name": "Bedford - Nostrand Avs", "location_type": "0", "zone_id": ""}, {"stop_lat": "40.74104", "stop_code": "", "stop_lon": "-73.997871", "parent_station": "131", "stop_url": "", "stop_id": "131S", "stop_desc": "", "stop_name": "18 St", "location_type": "0", "zone_id": ""}, {"stop_lat": "40.660476", "stop_code": "", "stop_lon": "-73.830301", "parent_station": "H03", "stop_url": "", "stop_id": "H03N", "stop_desc": "", "stop_name": "Howard Beach - JFK Airport", "location_type": "0", "zone_id": ""}, {"stop_lat": "40.525507", "stop_code": "", "stop_lon": "-74.200064", "parent_station": "S15", "stop_url": "", "stop_id": "S15N", "stop_desc": "", "stop_name": "Prince's Bay", "location_type": "0", "zone_id": ""}, {"stop_lat": "40.616622", "stop_code": "", "stop_lon": "-74.030876", "parent_station": "", "stop_url": "", "stop_id": "R45", "stop_desc": "", "stop_name": "Bay Ridge - 95 St", "location_type": "1", "zone_id": ""}, {"stop_lat": "40.712792", "stop_code": "", "stop_lon": "-73.951418", "parent_station": "G29", "stop_url": "", "stop_id": "G29S", "stop_desc": "", "stop_name": "Metropolitan Av", "location_type": "0", "zone_id": ""}, {"stop_lat": "40.644031", "stop_code": "", "stop_lon": "-73.964492", "parent_station": "D29", "stop_url": "", "stop_id": "D29N", "stop_desc": "", "stop_name": "Beverly Rd", "location_type": "0", "zone_id": ""}, {"stop_lat": "40.781433", "stop_code": "", "stop_lon": "-73.972143", "parent_station": "", "stop_url": "", "stop_id": "A21", "stop_desc": "", "stop_name": "81 St - Museum of Natural History", "location_type": "1", "zone_id": ""}, {"stop_lat": "40.706092", "stop_code": "", "stop_lon": "-73.950308", "parent_station": "G30", "stop_url": "", "stop_id": "G30N", "stop_desc": "", "stop_name": "Broadway", "location_type": "0", "zone_id": ""}, {"stop_lat": "40.713282", "stop_code": "", "stop_lon": "-74.006978", "parent_station": "R24", "stop_url": "", "stop_id": "R24N", "stop_desc": "", "stop_name": "City Hall", "location_type": "0", "zone_id": ""}, {"stop_lat": "40.688873", "stop_code": "", "stop_lon": "-73.96007", "parent_station": "", "stop_url": "", "stop_id": "G34", "stop_desc": "", "stop_name": "Classon Av", "location_type": "1", "zone_id": ""}, {"stop_lat": "40.687119", "stop_code": "", "stop_lon": "-73.975375", "parent_station": "", "stop_url": "", "stop_id": "G36", "stop_desc": "", "stop_name": "Fulton St", "location_type": "1", "zone_id": ""}, {"stop_lat": "40.811109", "stop_code": "", "stop_lon": "-73.952343", "parent_station": "A15", "stop_url": "", "stop_id": "A15N", "stop_desc": "", "stop_name": "125 St", "location_type": "0", "zone_id": ""}, {"stop_lat": "40.756804", "stop_code": "", "stop_lon": "-73.929575", "parent_station": "R06", "stop_url": "", "stop_id": "R06N", "stop_desc": "", "stop_name": "36 Av", "location_type": "0", "zone_id": ""}, {"stop_lat": "40.746325", "stop_code": "", "stop_lon": "-73.896403", "parent_station": "711", "stop_url": "", "stop_id": "711N", "stop_desc": "", "stop_name": "69 St", "location_type": "0", "zone_id": ""}, {"stop_lat": "40.608382", "stop_code": "", "stop_lon": "-73.815925", "parent_station": "H04", "stop_url": "", "stop_id": "H04N", "stop_desc": "", "stop_name": "Broad Channel", "location_type": "0", "zone_id": ""}, {"stop_lat": "40.689941", "stop_code": "", "stop_lon": "-73.87255", "parent_station": "", "stop_url": "", "stop_id": "J19", "stop_desc": "", "stop_name": "Cypress Hills", "location_type": "1", "zone_id": ""}, {"stop_lat": "40.533674", "stop_code": "", "stop_lon": "-74.191794", "parent_station": "S16", "stop_url": "", "stop_id": "S16N", "stop_desc": "", "stop_name": "Huguenot", "location_type": "0", "zone_id": ""}, {"stop_lat": "40.746554", "stop_code": "", "stop_lon": "-73.943832", "parent_station": "G22", "stop_url": "", "stop_id": "G22S", "stop_desc": "", "stop_name": "Long Island City - Court Sq", "location_type": "0", "zone_id": ""}, {"stop_lat": "40.836013", "stop_code": "", "stop_lon": "-73.939892", "parent_station": "", "stop_url": "", "stop_id": "A10", "stop_desc": "", "stop_name": "163 St - Amsterdam Av", "location_type": "1", "zone_id": ""}, {"stop_lat": "40.703087", "stop_code": "", "stop_lon": "-74.012994", "parent_station": "", "stop_url": "", "stop_id": "R27", "stop_desc": "", "stop_name": "Whitehall St", "location_type": "1", "zone_id": ""}, {"stop_lat": "40.74563", "stop_code": "", "stop_lon": "-73.902984", "parent_station": "712", "stop_url": "", "stop_id": "712N", "stop_desc": "", "stop_name": "Woodside - 61 St", "location_type": "0", "zone_id": ""}, {"stop_lat": "40.744149", "stop_code": "", "stop_lon": "-73.912549", "parent_station": "", "stop_url": "", "stop_id": "713", "stop_desc": "", "stop_name": "52 St", "location_type": "1", "zone_id": ""}, {"stop_lat": "40.77344", "stop_code": "", "stop_lon": "-73.982209", "parent_station": "124", "stop_url": "", "stop_id": "124N", "stop_desc": "", "stop_name": "66 St - Lincoln Center", "location_type": "0", "zone_id": ""}, {"stop_lat": "40.733422", "stop_code": "", "stop_lon": "-74.002906", "parent_station": "133", "stop_url": "", "stop_id": "133S", "stop_desc": "", "stop_name": "Christopher St - Sheridan Sq", "location_type": "0", "zone_id": ""}, {"stop_lat": "40.754222", "stop_code": "", "stop_lon": "-73.984569", "parent_station": "D16", "stop_url": "", "stop_id": "D16N", "stop_desc": "", "stop_name": "42 St - Bryant Pk", "location_type": "0", "zone_id": ""}, {"stop_lat": "40.868072", "stop_code": "", "stop_lon": "-73.919899", "parent_station": "", "stop_url": "", "stop_id": "A02", "stop_desc": "", "stop_name": "Inwood - 207 St", "location_type": "1", "zone_id": ""}, {"stop_lat": "40.719318", "stop_code": "", "stop_lon": "-74.006886", "parent_station": "", "stop_url": "", "stop_id": "136", "stop_desc": "", "stop_name": "Franklin St", "location_type": "1", "zone_id": ""}, {"stop_lat": "40.728251", "stop_code": "", "stop_lon": "-74.005367", "parent_station": "", "stop_url": "", "stop_id": "134", "stop_desc": "", "stop_name": "Houston St", "location_type": "1", "zone_id": ""}, {"stop_lat": "40.690635", "stop_code": "", "stop_lon": "-73.981824", "parent_station": "", "stop_url": "", "stop_id": "R30", "stop_desc": "", "stop_name": "DeKalb Av", "location_type": "1", "zone_id": ""}, {"stop_lat": "40.683666", "stop_code": "", "stop_lon": "-73.97881", "parent_station": "", "stop_url": "", "stop_id": "R31", "stop_desc": "", "stop_name": "Atlantic Av - Pacific St", "location_type": "1", "zone_id": ""}, {"stop_lat": "40.748408", "stop_code": "", "stop_lon": "-73.876613", "parent_station": "", "stop_url": "", "stop_id": "708", "stop_desc": "", "stop_name": "90 St - Elmhurst Av", "location_type": "1", "zone_id": ""}, {"stop_lat": "40.747659", "stop_code": "", "stop_lon": "-73.883697", "parent_station": "", "stop_url": "", "stop_id": "709", "stop_desc": "", "stop_name": "82 St - Jackson Hts", "location_type": "1", "zone_id": ""}, {"stop_lat": "40.8459", "stop_code": "", "stop_lon": "-73.910136", "parent_station": "", "stop_url": "", "stop_id": "D08", "stop_desc": "", "stop_name": "174 - 175 Sts", "location_type": "1", "zone_id": ""}, {"stop_lat": "40.766779", "stop_code": "", "stop_lon": "-73.921479", "parent_station": "R04", "stop_url": "", "stop_id": "R04S", "stop_desc": "", "stop_name": "30 Av", "location_type": "0", "zone_id": ""}, {"stop_lat": "40.590927", "stop_code": "", "stop_lon": "-73.796924", "parent_station": "H06", "stop_url": "", "stop_id": "H06N", "stop_desc": "", "stop_name": "Beach 67 St", "location_type": "0", "zone_id": ""}, {"stop_lat": "40.592943", "stop_code": "", "stop_lon": "-73.776013", "parent_station": "H08", "stop_url": "", "stop_id": "H08N", "stop_desc": "", "stop_name": "Beach 44 St", "location_type": "0", "zone_id": ""}, {"stop_lat": "40.758663", "stop_code": "", "stop_lon": "-73.981329", "parent_station": "D15", "stop_url": "", "stop_id": "D15N", "stop_desc": "", "stop_name": "47 - 50 Sts - Rockefeller Ctr", "location_type": "0", "zone_id": ""}, {"stop_lat": "40.76182", "stop_code": "", "stop_lon": "-73.925508", "parent_station": "", "stop_url": "", "stop_id": "R05", "stop_desc": "", "stop_name": "Broadway", "location_type": "1", "zone_id": ""}, {"stop_lat": "40.753821", "stop_code": "", "stop_lon": "-73.981963", "parent_station": "724", "stop_url": "", "stop_id": "724S", "stop_desc": "", "stop_name": "5 Av", "location_type": "0", "zone_id": ""}, {"stop_lat": "40.762862", "stop_code": "", "stop_lon": "-73.981637", "parent_station": "", "stop_url": "", "stop_id": "D14", "stop_desc": "", "stop_name": "7 Av", "location_type": "1", "zone_id": ""}, {"stop_lat": "40.592374", "stop_code": "", "stop_lon": "-73.788522", "parent_station": "H07", "stop_url": "", "stop_id": "H07N", "stop_desc": "", "stop_name": "Beach 60 St", "location_type": "0", "zone_id": ""}, {"stop_lat": "40.595398", "stop_code": "", "stop_lon": "-73.768175", "parent_station": "H09", "stop_url": "", "stop_id": "H09N", "stop_desc": "", "stop_name": "Beach 36 St", "location_type": "0", "zone_id": ""}, {"stop_lat": "40.803967", "stop_code": "", "stop_lon": "-73.966847", "parent_station": "", "stop_url": "", "stop_id": "118", "stop_desc": "", "stop_name": "Cathedral Pkwy", "location_type": "1", "zone_id": ""}, {"stop_lat": "40.718267", "stop_code": "", "stop_lon": "-73.993753", "parent_station": "", "stop_url": "", "stop_id": "D22", "stop_desc": "", "stop_name": "Grand St", "location_type": "1", "zone_id": ""}], "edges": [{"source": 112, "routeName": "G", "target": 117, "distance": 0.010284195495998277, "sourceName": "4 Av", "routeColor": "6CBE45", "targetName": "7 Av", "value": 368, "routeId": "G"}, {"source": 112, "routeName": "G", "target": 113, "distance": 0.007009655055709477, "sourceName": "4 Av", "routeColor": "6CBE45", "targetName": "Smith - 9 Sts", "value": 363, "routeId": "G"}, {"source": 59, "routeName": "N", "target": 260, "distance": 0.01559093999731912, "sourceName": "Coney Island - Stillwell Av", "routeColor": "FCCC0A", "targetName": "86 St", "value": 361, "routeId": "N"}, {"source": 221, "routeName": "3", "target": 366, "distance": 0.014095979462242465, "sourceName": "34 St - Penn Station", "routeColor": "EE352E", "targetName": "14 St", "value": 294, "routeId": "3"}, {"source": 318, "routeName": "R", "target": 229, "distance": 0.00895515907172979, "sourceName": "36 St", "routeColor": "FCCC0A", "targetName": "45 St", "value": 365, "routeId": "R"}, {"source": 405, "routeName": "D", "target": 419, "distance": 0.03768981891704608, "sourceName": "Atlantic Av - Pacific St", "routeColor": "FF6319", "targetName": "Grand St", "value": 287, "routeId": "D"}, {"source": 411, "routeName": "A", "target": 417, "distance": 0.008213480930770338, "sourceName": "Beach 44 St", "routeColor": "2850AD", "targetName": "Beach 36 St", "value": 239, "routeId": "A"}, {"source": 411, "routeName": "A", "target": 416, "distance": 0.012521934435216337, "sourceName": "Beach 44 St", "routeColor": "2850AD", "targetName": "Beach 60 St", "value": 233, "routeId": "A"}, {"source": 223, "routeName": "F", "target": 42, "distance": 0.010734579730947214, "sourceName": "34 St - Herald Sq", "routeColor": "FF6319", "targetName": "23 St", "value": 421, "routeId": "F"}, {"source": 243, "routeName": "5", "target": 225, "distance": 0.010515951930282715, "sourceName": "Nevins St", "routeColor": "00933C", "targetName": "Borough Hall", "value": 122, "routeId": "5"}, {"source": 366, "routeName": "2", "target": 73, "distance": 0.026520143306553345, "sourceName": "14 St", "routeColor": "EE352E", "targetName": "Chambers St", "value": 313, "routeId": "2"}, {"source": 74, "routeName": "F", "target": 120, "distance": 0.010543667151410929, "sourceName": "Sutphin Blvd", "routeColor": "FF6319", "targetName": "Briarwood - Van Wyck Blvd", "value": 421, "routeId": "F"}, {"source": 242, "routeName": "2", "target": 224, "distance": 0.00795657621090419, "sourceName": "Franklin Av", "routeColor": "EE352E", "targetName": "President St", "value": 361, "routeId": "2"}, {"source": 282, "routeName": "5", "target": 239, "distance": 0.0065571716463760435, "sourceName": "Burke Av", "routeColor": "00933C", "targetName": "Gun Hill Rd", "value": 12, "routeId": "5"}, {"source": 91, "routeName": "4", "target": 26, "distance": 0.012202727604918548, "sourceName": "125 St", "routeColor": "00933C", "targetName": "116 St", "value": 47, "routeId": "4"}, {"source": 289, "routeName": "G", "target": 386, "distance": 0.00972229916223249, "sourceName": "Hoyt - Schermerhorn Sts", "routeColor": "6CBE45", "targetName": "Fulton St", "value": 363, "routeId": "G"}, {"source": 345, "routeName": "R", "target": 340, "distance": 0.007428670002093592, "sourceName": "Steinway St", "routeColor": "FCCC0A", "targetName": "46 St", "value": 317, "routeId": "R"}, {"source": 6, "routeName": "A", "target": 58, "distance": 0.008045368419157869, "sourceName": "145 St", "routeColor": "2850AD", "targetName": "155 St", "value": 81, "routeId": "A"}, {"source": 102, "routeName": "7", "target": 171, "distance": 0.007598432798944579, "sourceName": "103 St - Corona Plaza", "routeColor": "B933AD", "targetName": "111 St", "value": 630, "routeId": "7"}, {"source": 215, "routeName": "C", "target": 170, "distance": 0.007221572128008182, "sourceName": "59 St - Columbus Circle", "routeColor": "2850AD", "targetName": "50 St", "value": 270, "routeId": "C"}, {"source": 76, "routeName": "3", "target": 26, "distance": 0.003737022611656939, "sourceName": "Central Park North (110 St)", "routeColor": "EE352E", "targetName": "116 St", "value": 359, "routeId": "3"}, {"source": 382, "routeName": "B", "target": 297, "distance": 0.008282761978952101, "sourceName": "81 St - Museum of Natural History", "routeColor": "FF6319", "targetName": "86 St", "value": 103, "routeId": "B"}, {"source": 30, "routeName": "S", "target": 31, "distance": 0.007308598018761961, "sourceName": "Beach 98 St", "routeColor": "", "targetName": "Beach 105 St", "value": 241, "routeId": "H"}, {"source": 366, "routeName": "A", "target": 111, "distance": 0.008638058230876315, "sourceName": "14 St", "routeColor": "2850AD", "targetName": "W 4 St", "value": 425, "routeId": "A"}, {"source": 4, "routeName": "6", "target": 89, "distance": 0.00863769442618571, "sourceName": "E 149 St", "routeColor": "00933C", "targetName": "Longwood Av", "value": 493, "routeId": "6"}, {"source": 102, "routeName": "7", "target": 57, "distance": 0.006864861906842608, "sourceName": "103 St - Corona Plaza", "routeColor": "B933AD", "targetName": "Junction Blvd", "value": 645, "routeId": "7"}, {"source": 20, "routeName": "C", "target": 19, "distance": 0.006630002714932816, "sourceName": "Rockaway Av", "routeColor": "2850AD", "targetName": "Broadway Jct", "value": 270, "routeId": "C"}, {"source": 359, "routeName": "Q", "target": 274, "distance": 0.004991632398329278, "sourceName": "Church Av", "routeColor": "FCCC0A", "targetName": "Parkside Av", "value": 374, "routeId": "Q"}, {"source": 343, "routeName": "R", "target": 269, "distance": 0.005845136867518852, "sourceName": "5 Av/59 St", "routeColor": "FCCC0A", "targetName": "59 St", "value": 317, "routeId": "R"}, {"source": 313, "routeName": "2", "target": 282, "distance": 0.005896997541119757, "sourceName": "Allerton Av", "routeColor": "EE352E", "targetName": "Burke Av", "value": 365, "routeId": "2"}, {"source": 362, "routeName": "A", "target": 315, "distance": 0.006301779431238115, "sourceName": "Rockaway Blvd", "routeColor": "2850AD", "targetName": "104 St", "value": 242, "routeId": "A"}, {"source": 101, "routeName": "A", "target": 6, "distance": 0.016601961360035392, "sourceName": "168 St", "routeColor": "2850AD", "targetName": "145 St", "value": 345, "routeId": "A"}, {"source": 235, "routeName": "A", "target": 382, "distance": 0.010268901060972006, "sourceName": "72 St", "routeColor": "2850AD", "targetName": "81 St - Museum of Natural History", "value": 81, "routeId": "A"}, {"source": 170, "routeName": "1", "target": 215, "distance": 0.007221572128008182, "sourceName": "50 St", "routeColor": "EE352E", "targetName": "59 St - Columbus Circle", "value": 511, "routeId": "1"}, {"source": 255, "routeName": "J", "target": 228, "distance": 0.0072150510739625974, "sourceName": "85 St - Forest Pkwy", "routeColor": "996633", "targetName": "75 St", "value": 353, "routeId": "J"}, {"source": 288, "routeName": "2", "target": 33, "distance": 0.008252349604803706, "sourceName": "West Farms Sq - E Tremont Av", "routeColor": "EE352E", "targetName": "174 St", "value": 365, "routeId": "2"}, {"source": 324, "routeName": "F", "target": 114, "distance": 0.007786374316720857, "sourceName": "Jay St - MetroTech", "routeColor": "FF6319", "targetName": "Bergen St", "value": 421, "routeId": "F"}, {"source": 78, "routeName": "C", "target": 79, "distance": 0.009581957680962715, "sourceName": "Nostrand Av", "routeColor": "2850AD", "targetName": "Kingston - Throop Avs", "value": 270, "routeId": "C"}, {"source": 345, "routeName": "R", "target": 364, "distance": 0.009385269362146093, "sourceName": "Steinway St", "routeColor": "FCCC0A", "targetName": "36 St", "value": 317, "routeId": "R"}, {"source": 131, "routeName": "L", "target": 136, "distance": 0.006888307339252663, "sourceName": "Morgan Av", "routeColor": "A7A9AC", "targetName": "Montrose Av", "value": 611, "routeId": "L"}, {"source": 316, "routeName": "6", "target": 334, "distance": 0.007015361216639599, "sourceName": "Parkchester", "routeColor": "00933C", "targetName": "St Lawrence Av", "value": 515, "routeId": "6"}, {"source": 168, "routeName": "E", "target": 60, "distance": 0.010978735901735662, "sourceName": "World Trade Center", "routeColor": "2850AD", "targetName": "Canal St", "value": 454, "routeId": "E"}, {"source": 337, "routeName": "J", "target": 339, "distance": 0.011329268511259118, "sourceName": "Cleveland St", "routeColor": "996633", "targetName": "Crescent St", "value": 5, "routeId": "J"}, {"source": 153, "routeName": "2", "target": 152, "distance": 0.007634599138124168, "sourceName": "Pennsylvania Av", "routeColor": "EE352E", "targetName": "Junius St", "value": 4, "routeId": "2"}, {"source": 392, "routeName": "SIR", "target": 378, "distance": 0.011622942355528488, "sourceName": "Huguenot", "routeColor": "", "targetName": "Prince's Bay", "value": 142, "routeId": "SI"}, {"source": 7, "routeName": "G", "target": 115, "distance": 0.00778888214059362, "sourceName": "Church Av", "routeColor": "6CBE45", "targetName": "Fort Hamilton Pkwy", "value": 363, "routeId": "G"}, {"source": 187, "routeName": "N", "target": 395, "distance": 0.004495775461476702, "sourceName": "Rector St", "routeColor": "FCCC0A", "targetName": "Whitehall St", "value": 65, "routeId": "N"}, {"source": 419, "routeName": "D", "target": 405, "distance": 0.03768981891704608, "sourceName": "Grand St", "routeColor": "FF6319", "targetName": "Atlantic Av - Pacific St", "value": 293, "routeId": "D"}, {"source": 419, "routeName": "D", "target": 404, "distance": 0.030096984317364985, "sourceName": "Grand St", "routeColor": "FF6319", "targetName": "DeKalb Av", "value": 72, "routeId": "D"}, {"source": 226, "routeName": "N", "target": 254, "distance": 0.006434571392099856, "sourceName": "20 Av", "routeColor": "FCCC0A", "targetName": "Bay Pkwy", "value": 369, "routeId": "N"}, {"source": 60, "routeName": "N", "target": 94, "distance": 0.00655450074375877, "sourceName": "Canal St", "routeColor": "FCCC0A", "targetName": "Prince St", "value": 364, "routeId": "N"}, {"source": 19, "routeName": "A", "target": 86, "distance": 0.025433864610004082, "sourceName": "Broadway Jct", "routeColor": "2850AD", "targetName": "Utica Av", "value": 344, "routeId": "A"}, {"source": 331, "routeName": "Q", "target": 46, "distance": 0.008410382631010854, "sourceName": "Neck Rd", "routeColor": "FCCC0A", "targetName": "Sheepshead Bay", "value": 374, "routeId": "Q"}, {"source": 331, "routeName": "Q", "target": 47, "distance": 0.004126104700557352, "sourceName": "Neck Rd", "routeColor": "FCCC0A", "targetName": "Avenue U", "value": 374, "routeId": "Q"}, {"source": 167, "routeName": "7X", "target": 92, "distance": 0.0046829824898271845, "sourceName": "Hunters Point Av", "routeColor": "B933AD", "targetName": "Vernon Blvd - Jackson Av", "value": 42, "routeId": "7X"}, {"source": 194, "routeName": "D", "target": 195, "distance": 0.004873381782700284, "sourceName": "50 St", "routeColor": "FF6319", "targetName": "55 St", "value": 365, "routeId": "D"}, {"source": 312, "routeName": "2", "target": 311, "distance": 0.008566873233554846, "sourceName": "E 180 St", "routeColor": "EE352E", "targetName": "Bronx Park East", "value": 365, "routeId": "2"}, {"source": 367, "routeName": "N", "target": 349, "distance": 0.007239354252964666, "sourceName": "Prospect Av", "routeColor": "FCCC0A", "targetName": "25 St", "value": 70, "routeId": "N"}, {"source": 223, "routeName": "B", "target": 400, "distance": 0.0057532761101851465, "sourceName": "34 St - Herald Sq", "routeColor": "FF6319", "targetName": "42 St - Bryant Pk", "value": 103, "routeId": "B"},