{"nodes": [{"lat": "40.643748", "lng": "-74.073643", "name": "St George"}, {"lat": "40.820948", "lng": "-73.890549", "name": "Hunts Point Av"}, {"lat": "40.533674", "lng": "-74.191794", "name": "Huguenot"}, {"lat": "40.692435", "lng": "-73.86001", "name": "85 St - Forest Pkwy"}, {"lat": "40.588849", "lng": "-74.09609", "name": "Dongan Hills"}, {"lat": "40.5564", "lng": "-74.136907", "name": "Bay Terrace"}, {"lat": "40.636949", "lng": "-74.074835", "name": "Tompkinsville"}, {"lat": "40.675235", "lng": "-73.971046", "name": "Grand Army Plaza"}, {"lat": "40.742216", "lng": "-73.948916", "name": "Hunters Point Av"}, {"lat": "40.768296", "lng": "-73.981736", "name": "59 St - Columbus Circle"}, {"lat": "40.843863", "lng": "-73.836322", "name": "Middletown Rd"}, {"lat": "40.680596", "lng": "-73.955827", "name": "Franklin Av"}, {"lat": "40.620671", "lng": "-73.990414", "name": "18 Av"}, {"lat": "40.817894", "lng": "-73.947649", "name": "135 St"}, {"lat": "40.660365", "lng": "-73.979493", "name": "15 St - Prospect Park"}, {"lat": "40.56511", "lng": "-74.12632", "name": "Oakwood Heights"}, {"lat": "40.747659", "lng": "-73.883697", "name": "82 St - Jackson Hts"}, {"lat": "40.679364", "lng": "-73.930729", "name": "Utica Av"}, {"lat": "40.592943", "lng": "-73.776013", "name": "Beach 44 St"}, {"lat": "40.600066", "lng": "-73.761353", "name": "Beach 25 St"}, {"lat": "40.702762", "lng": "-73.90774", "name": "Seneca Av"}, {"lat": "40.690545", "lng": "-73.985065", "name": "Hoyt St"}, {"lat": "40.711926", "lng": "-73.94067", "name": "Grand St"}, {"lat": "40.663515", "lng": "-73.902447", "name": "Junius St"}, {"lat": "40.719318", "lng": "-74.006886", "name": "Franklin St"}, {"lat": "40.898379", "lng": "-73.854376", "name": "Nereid Av"}, {"lat": "40.82388", "lng": "-73.93647", "name": "Harlem - 148 St"}, {"lat": "40.726523", "lng": "-73.852719", "name": "67 Av"}, {"lat": "40.848828", "lng": "-73.868457", "name": "Bronx Park East"}, {"lat": "40.677316", "lng": "-73.98311", "name": "Union St"}, {"lat": "40.732338", "lng": "-74.000495", "name": "W 4 St"}, {"lat": "40.871356", "lng": "-73.867164", "name": "Burke Av"}, {"lat": "40.732849", "lng": "-73.986122", "name": "3 Av"}, {"lat": "40.702068", "lng": "-74.013664", "name": "South Ferry"}, {"lat": "40.619589", "lng": "-73.998864", "name": "71 St"}, {"lat": "40.889248", "lng": "-73.898583", "name": "Van Cortlandt Park - 242 St"}, {"lat": "40.816109", "lng": "-73.917757", "name": "3 Av - 149 St"}, {"lat": "40.664635", "lng": "-73.894895", "name": "Pennsylvania Av"}, {"lat": "40.664717", "lng": "-73.92261", "name": "Sutter Av - Rutland Rd"}, {"lat": "40.810476", "lng": "-73.926138", "name": "3 Av - 138 St"}, {"lat": "40.695178", "lng": "-73.84433", "name": "104 St"}, {"lat": "40.754622", "lng": "-73.845625", "name": "Mets - Willets Point"}, {"lat": "40.856093", "lng": "-73.900741", "name": "182 - 183 Sts"}, {"lat": "40.828584", "lng": "-73.879159", "name": "Elder Av"}, {"lat": "40.807566", "lng": "-73.91924", "name": "Brook Av"}, {"lat": "40.711396", "lng": "-73.889601", "name": "Middle Village - Metropolitan Av"}, {"lat": "40.635082", "lng": "-73.962793", "name": "Newkirk Av"}, {"lat": "40.754672", "lng": "-73.986754", "name": "Times Sq - 42 St"}, {"lat": "40.847391", "lng": "-73.939704", "name": "175 St"}, {"lat": "40.595398", "lng": "-73.768175", "name": "Beach 36 St"}, {"lat": "40.799075", "lng": "-73.951822", "name": "Central Park North (110 St)"}, {"lat": "40.757552", "lng": "-73.969055", "name": "Lexington Av/53 St"}, {"lat": "40.704817", "lng": "-74.014065", "name": "Bowling Green"}, {"lat": "40.701411", "lng": "-74.013205", "name": "South Ferry Loop"}, {"lat": "40.840295", "lng": "-73.880049", "name": "West Farms Sq - E Tremont Av"}, {"lat": "40.670343", "lng": "-73.959245", "name": "Botanic Garden"}, {"lat": "40.865491", "lng": "-73.927271", "name": "Dyckman St"}, {"lat": "40.764629", "lng": "-73.966113", "name": "Lexington Av/63 St"}, {"lat": "40.664038", "lng": "-73.900571", "name": "Livonia Av"}, {"lat": "40.577422", "lng": "-73.981233", "name": "Coney Island - Stillwell Av"}, {"lat": "40.596612", "lng": "-74.087368", "name": "Old Town"}, {"lat": "40.699743", "lng": "-73.986885", "name": "York St"}, {"lat": "40.738228", "lng": "-73.996209", "name": "14 St"}, {"lat": "40.644041", "lng": "-73.979678", "name": "Church Av"}, {"lat": "40.840556", "lng": "-73.940133", "name": "168 St - Washington Hts"}, {"lat": "40.676992", "lng": "-73.898654", "name": "Alabama Av"}, {"lat": "40.686113", "lng": "-73.973946", "name": "Lafayette Av"}, {"lat": "40.613501", "lng": "-74.00061", "name": "79 St"}, {"lat": "40.68141", "lng": "-73.880039", "name": "Norwood Av"}, {"lat": "40.748408", "lng": "-73.876613", "name": "90 St - Elmhurst Av"}, {"lat": "40.718315", "lng": "-73.987437", "name": "Essex St"}, {"lat": "40.611815", "lng": "-73.981848", "name": "Bay Pkwy"}, {"lat": "40.752882", "lng": "-73.932755", "name": "39 Av"}, {"lat": "40.84848", "lng": "-73.911794", "name": "176 St"}, {"lat": "40.590927", "lng": "-73.796924", "name": "Beach 67 St"}, {"lat": "40.752287", "lng": "-73.993391", "name": "34 St - Penn Station"}, {"lat": "40.724329", "lng": "-73.997702", "name": "Prince St"}, {"lat": "40.641362", "lng": "-74.017881", "name": "59 St"}, {"lat": "40.884667", "lng": "-73.90087", "name": "238 St"}, {"lat": "40.746848", "lng": "-73.891394", "name": "74 St - Broadway"}, {"lat": "40.800603", "lng": "-73.958161", "name": "Cathedral Pkwy (110 St)"}, {"lat": "40.87975", "lng": "-73.884655", "name": "Mosholu Pkwy"}, {"lat": "40.724635", "lng": "-73.951277", "name": "Nassau Av"}, {"lat": "40.714565", "lng": "-73.944053", "name": "Graham Av"}, {"lat": "40.693879", "lng": "-73.851576", "name": "Woodhaven Blvd"}, {"lat": "40.707564", "lng": "-73.803326", "name": "Parsons Blvd"}, {"lat": "40.627915", "lng": "-74.075162", "name": "Stapleton"}, {"lat": "40.6941", "lng": "-73.991777", "name": "Court St"}, {"lat": "40.517812", "lng": "-74.238373", "name": "Nassau"}, {"lat": "40.640927", "lng": "-73.963891", "name": "Cortelyou Rd"}, {"lat": "40.525507", "lng": "-74.200064", "name": "Prince's Bay"}, {"lat": "40.812118", "lng": "-73.904098", "name": "E 149 St"}, {"lat": "40.682893", "lng": "-73.910456", "name": "Chauncey St"}, {"lat": "40.634967", "lng": "-74.023377", "name": "Bay Ridge Av"}, {"lat": "40.669367", "lng": "-73.901975", "name": "Sutter Av"}, {"lat": "40.667883", "lng": "-73.950683", "name": "President St"}, {"lat": "40.688246", "lng": "-73.980492", "name": "Nevins St"}, {"lat": "40.861296", "lng": "-73.897749", "name": "Fordham Rd"}, {"lat": "40.824073", "lng": "-73.893064", "name": "Simpson St"}, {"lat": "40.808719", "lng": "-73.907657", "name": "E 143 St - St Mary's St"}, {"lat": "40.754203", "lng": "-73.942836", "name": "21 St - Queensbridge"}, {"lat": "40.52241", "lng": "-74.217847", "name": "Pleasant Plains"}, {"lat": "40.697466", "lng": "-73.993086", "name": "Clark St"}, {"lat": "40.839892", "lng": "-73.842952", "name": "Westchester Sq - E Tremont Av"}, {"lat": "40.71047", "lng": "-73.793604", "name": "169 St"}, {"lat": "40.74563", "lng": "-73.902984", "name": "Woodside - 61 St"}, {"lat": "40.893193", "lng": "-73.857473", "name": "233 St"}, {"lat": "40.869526", "lng": "-73.846384", "name": "Gun Hill Rd"}, {"lat": "40.858985", "lng": "-73.855359", "name": "Pelham Pkwy"}, {"lat": "40.775594", "lng": "-73.97641", "name": "72 St"}, {"lat": "40.759901", "lng": "-73.984139", "name": "49 St"}, {"lat": "40.63626", "lng": "-73.994791", "name": "50 St"}, {"lat": "40.682829", "lng": "-73.905249", "name": "Bushwick Av - Aberdeen St"}, {"lat": "40.859022", "lng": "-73.93418", "name": "190 St"}, {"lat": "40.852462", "lng": "-73.828121", "name": "Pelham Bay Park"}, {"lat": "40.544601", "lng": "-74.16457", "name": "Eltingville"}, {"lat": "40.577621", "lng": "-73.961376", "name": "Brighton Beach"}, {"lat": "40.670272", "lng": "-73.989779", "name": "4 Av"}, {"lat": "40.717304", "lng": "-73.956872", "name": "Bedford Av"}, {"lat": "40.733422", "lng": "-74.002906", "name": "Christopher St - Sheridan Sq"}, {"lat": "40.753821", "lng": "-73.981963", "name": "5 Av"}, {"lat": "40.743781", "lng": "-73.924016", "name": "40 St"}, {"lat": "40.775036", "lng": "-73.912034", "name": "Astoria - Ditmars Blvd"}, {"lat": "40.707739", "lng": "-73.93985", "name": "Montrose Av"}, {"lat": "40.844434", "lng": "-73.914685", "name": "Mt Eden Av"}, {"lat": "40.830135", "lng": "-73.938209", "name": "155 St"}, {"lat": "40.679843", "lng": "-73.85147", "name": "88 St"}, {"lat": "40.519631", "lng": "-74.229141", "name": "Richmond Valley"}, {"lat": "40.70546", "lng": "-73.810708", "name": "Sutphin Blvd"}, {"lat": "40.718331", "lng": "-73.837324", "name": "75 Av"}, {"lat": "40.781433", "lng": "-73.972143", "name": "81 St - Museum of Natural History"}, {"lat": "40.749145", "lng": "-73.869527", "name": "Junction Blvd"}, {"lat": "40.855225", "lng": "-73.929412", "name": "191 St"}, {"lat": "40.686145", "lng": "-73.990862", "name": "Bergen St"}, {"lat": "40.603117", "lng": "-74.084087", "name": "Grasmere"}, {"lat": "40.718611", "lng": "-73.988114", "name": "Delancey St"}, {"lat": "40.668897", "lng": "-73.932942", "name": "Crown Hts - Utica Av"}, {"lat": "40.744149", "lng": "-73.912549", "name": "52 St"}, {"lat": "40.745494", "lng": "-73.988691", "name": "28 St"}, {"lat": "40.840719", "lng": "-73.939561", "name": "168 St"}, {"lat": "40.713243", "lng": "-74.003401", "name": "Chambers St"}, {"lat": "40.648939", "lng": "-74.010006", "name": "45 St"}, {"lat": "40.645069", "lng": "-74.014034", "name": "53 St"}, {"lat": "40.708359", "lng": "-73.957757", "name": "Marcy Av"}, {"lat": "40.730328", "lng": "-73.992629", "name": "8 St - NYU"}, {"lat": "40.759145", "lng": "-73.95326", "name": "Roosevelt Island"}, {"lat": "40.757308", "lng": "-73.989735", "name": "42 St - Port Authority Bus Terminal"}, {"lat": "40.70722", "lng": "-74.013342", "name": "Rector St"}, {"lat": "40.689941", "lng": "-73.87255", "name": "Cypress Hills"}, {"lat": "40.737335", "lng": "-73.996786", "name": "6 Av"}, {"lat": "40.834041", "lng": "-73.94489", "name": "157 St"}, {"lat": "40.660397", "lng": "-73.998091", "name": "25 St"}, {"lat": "40.746554", "lng": "-73.943832", "name": "Long Island City - Court Sq"}, {"lat": "40.752769", "lng": "-73.979189", "name": "Grand Central - 42 St"}, {"lat": "40.68963", "lng": "-73.92227", "name": "Gates Av"}, {"lat": "40.666271", "lng": "-73.980305", "name": "7 Av"}, {"lat": "40.839306", "lng": "-73.9134", "name": "170 St"}, {"lat": "40.67834", "lng": "-73.911946", "name": "Rockaway Av"}, {"lat": "40.665414", "lng": "-73.992872", "name": "Prospect Av"}, {"lat": "40.646654", "lng": "-73.90185", "name": "Canarsie - Rockaway Pkwy"}, {"lat": "40.72028", "lng": "-73.993915", "name": "Bowery"}, {"lat": "40.678822", "lng": "-73.920786", "name": "Ralph Av"}, {"lat": "40.678856", "lng": "-73.90324", "name": "Broadway Jct"}, {"lat": "40.700486", "lng": "-73.807969", "name": "Sutphin Blvd - Archer Av - JFK Airport"}, {"lat": "40.854364", "lng": "-73.860495", "name": "Morris Park"}, {"lat": "40.700492", "lng": "-73.828294", "name": "121 St"}, {"lat": "40.691324", "lng": "-73.867139", "name": "75 St"}, {"lat": "40.719527", "lng": "-74.001775", "name": "Canal St"}, {"lat": "40.712792", "lng": "-73.951418", "name": "Metropolitan Av"}, {"lat": "40.693342", "lng": "-73.928814", "name": "Kosciusko St"}, {"lat": "40.578965", "lng": "-74.109704", "name": "Grant City"}, {"lat": "40.757107", "lng": "-73.97192", "name": "51 St"}, {"lat": "40.581011", "lng": "-73.974574", "name": "Neptune Av"}, {"lat": "40.54046", "lng": "-74.178217", "name": "Annadale"}, {"lat": "40.878856", "lng": "-73.904834", "name": "231 St"}, {"lat": "40.688089", "lng": "-73.966839", "name": "Clinton - Washington Avs"}, {"lat": "40.873412", "lng": "-73.890064", "name": "Bedford Park Blvd - Lehman College"}, {"lat": "40.69218", "lng": "-73.985942", "name": "Jay St - MetroTech"}, {"lat": "40.583591", "lng": "-74.103338", "name": "Jefferson Av"}, {"lat": "40.706476", "lng": "-74.011056", "name": "Broad St"}, {"lat": "40.864621", "lng": "-73.918822", "name": "207 St"}, {"lat": "40.631435", "lng": "-73.995476", "name": "55 St"}, {"lat": "40.679947", "lng": "-73.884639", "name": "Cleveland St"}, {"lat": "40.752885", "lng": "-73.906006", "name": "Northern Blvd"}, {"lat": "40.768141", "lng": "-73.96387", "name": "68 St - Hunter College"}, {"lat": "40.85041", "lng": "-73.905227", "name": "Tremont Av"}, {"lat": "40.829993", "lng": "-73.891865", "name": "Freeman St"}, {"lat": "40.712582", "lng": "-74.009781", "name": "World Trade Center"}, {"lat": "40.763972", "lng": "-73.97745", "name": "57 St"}, {"lat": "40.824783", "lng": "-73.944216", "name": "145 St"}, {"lat": "40.680429", "lng": "-73.843853", "name": "Rockaway Blvd"}, {"lat": "40.764664", "lng": "-73.980658", "name": "57 St - 7 Av"}, {"lat": "40.706607", "lng": "-73.922913", "name": "Jefferson St"}, {"lat": "40.76182", "lng": "-73.925508", "name": "Broadway"}, {"lat": "40.661614", "lng": "-73.962246", "name": "Prospect Park"}, {"lat": "40.747846", "lng": "-73.946", "name": "23 St - Ely Av"}, {"lat": "40.744587", "lng": "-73.930997", "name": "33 St"}, {"lat": "40.742626", "lng": "-73.953581", "name": "Vernon Blvd - Jackson Av"}, {"lat": "40.903125", "lng": "-73.85062", "name": "Wakefield - 241 St"}, {"lat": "40.730054", "lng": "-73.99107", "name": "Astor Pl"}, {"lat": "40.728251", "lng": "-74.005367", "name": "Houston St"}, {"lat": "40.660476", "lng": "-73.830301", "name": "Howard Beach - JFK Airport"}, {"lat": "40.661453", "lng": "-73.916327", "name": "Saratoga Av"}, {"lat": "40.868072", "lng": "-73.919899", "name": "Inwood - 207 St"}, {"lat": "40.697207", "lng": "-73.935657", "name": "Myrtle Av"}, {"lat": "40.658733", "lng": "-73.899232", "name": "New Lots Av"}, {"lat": "40.699337", "lng": "-73.990531", "name": "High St"}, {"lat": "40.747023", "lng": "-73.945264", "name": "45 Rd - Court House Sq"}, {"lat": "40.632836", "lng": "-73.947642", "name": "Flatbush Av - Brooklyn College"}, {"lat": "40.680438", "lng": "-73.950426", "name": "Nostrand Av"}, {"lat": "40.754222", "lng": "-73.984569", "name": "42 St - Bryant Pk"}, {"lat": "40.688873", "lng": "-73.96007", "name": "Classon Av"}, {"lat": "40.679371", "lng": "-73.858992", "name": "80 St"}, {"lat": "40.833226", "lng": "-73.860816", "name": "Parkchester"}, {"lat": "40.669399", "lng": "-73.942161", "name": "Kingston Av"}, {"lat": "40.827905", "lng": "-73.925651", "name": "161 St - Yankee Stadium"}, {"lat": "40.888022", "lng": "-73.860341", "name": "225 St"}, {"lat": "40.749567", "lng": "-73.98795", "name": "34 St - Herald Sq"}, {"lat": "40.8459", "lng": "-73.910136", "name": "174 - 175 Sts"}, {"lat": "40.878663", "lng": "-73.838591", "name": "Baychester Av"}, {"lat": "40.869444", "lng": "-73.915279", "name": "215 St"}, {"lat": "40.834255", "lng": "-73.851222", "name": "Castle Hill Av"}, {"lat": "40.512764", "lng": "-74.251961", "name": "Tottenville"}, {"lat": "40.70026", "lng": "-73.941126", "name": "Flushing Av"}, {"lat": "40.833771", "lng": "-73.91844", "name": "167 St"}, {"lat": "40.726227", "lng": "-74.003739", "name": "Spring St"}, {"lat": "40.592374", "lng": "-73.788522", "name": "Beach 60 St"}, {"lat": "40.734789", "lng": "-73.99073", "name": "Union Sq - 14 St"}, {"lat": "40.729846", "lng": "-73.861604", "name": "63 Dr - Rego Park"}, {"lat": "40.841894", "lng": "-73.873488", "name": "E 180 St"}, {"lat": "40.650573", "lng": "-73.899485", "name": "E 105 St"}, {"lat": "40.826525", "lng": "-73.886283", "name": "Whitlock Av"}, {"lat": "40.668234", "lng": "-73.834058", "name": "Aqueduct - N Conduit Av"}, {"lat": "40.688484", "lng": "-73.985001", "name": "Hoyt - Schermerhorn Sts"}, {"lat": "40.749669", "lng": "-73.898453", "name": "65 St"}, {"lat": "40.713282", "lng": "-74.006978", "name": "City Hall"}, {"lat": "40.70687", "lng": "-73.953431", "name": "Hewes St"}, {"lat": "40.8883", "lng": "-73.830834", "name": "Eastchester - Dyre Av"}, {"lat": "40.677044", "lng": "-73.86505", "name": "Grant Av"}, {"lat": "40.635064", "lng": "-74.011719", "name": "8 Av"}, {"lat": "40.57348", "lng": "-74.11721", "name": "New Dorp"}, {"lat": "40.816104", "lng": "-73.896435", "name": "Longwood Av"}, {"lat": "40.624842", "lng": "-73.996353", "name": "New Utrecht Av"}, {"lat": "40.679921", "lng": "-73.940858", "name": "Kingston - Throop Avs"}, {"lat": "40.749865", "lng": "-73.8627", "name": "103 St - Corona Plaza"}, {"lat": "40.807722", "lng": "-73.96411", "name": "116 St - Columbia University"}, {"lat": "40.583209", "lng": "-73.827559", "name": "Beach 105 St"}, {"lat": "40.688764", "lng": "-73.904046", "name": "Wilson Av"}, {"lat": "40.603923", "lng": "-73.980353", "name": "Kings Hwy"}, {"lat": "40.714441", "lng": "-73.831008", "name": "Kew Gardens - Union Tpke"}, {"lat": "40.710668", "lng": "-74.011029", "name": "Cortlandt St"}, {"lat": "40.706186", "lng": "-73.895877", "name": "Fresh Pond Rd"}, {"lat": "40.697418", "lng": "-73.836345", "name": "111 St"}, {"lat": "40.836013", "lng": "-73.939892", "name": "163 St - Amsterdam Av"}, {"lat": "40.756879", "lng": "-73.92074", "name": "Steinway St"}, {"lat": "40.697857", "lng": "-73.927397", "name": "Central Av"}, {"lat": "40.831509", "lng": "-73.867618", "name": "St Lawrence Av"}, {"lat": "40.853453", "lng": "-73.907684", "name": "Burnside Av"}, {"lat": "40.671987", "lng": "-73.964375", "name": "Eastern Pkwy - Brooklyn Museum"}, {"lat": "40.709179", "lng": "-73.820574", "name": "Briarwood - Van Wyck Blvd"}, {"lat": "40.692404", "lng": "-73.990151", "name": "Borough Hall"}, {"lat": "40.796092", "lng": "-73.961454", "name": "103 St"}, {"lat": "40.629742", "lng": "-74.02551", "name": "77 St"}, {"lat": "40.758663", "lng": "-73.981329", "name": "47 - 50 Sts - Rockefeller Ctr"}, {"lat": "40.551231", "lng": "-74.151399", "name": "Great Kills"}, {"lat": "40.741303", "lng": "-73.989344", "name": "23 St"}, {"lat": "40.655144", "lng": "-74.003549", "name": "36 St"}, {"lat": "40.707557", "lng": "-74.011862", "name": "Wall St"}, {"lat": "40.81649", "lng": "-73.907807", "name": "Jackson Av"}, {"lat": "40.585307", "lng": "-73.820558", "name": "Beach 98 St"}, {"lat": "40.822008", "lng": "-73.953676", "name": "137 St - City College"}, {"lat": "40.79502", "lng": "-73.94425", "name": "110 St"}, {"lat": "40.597704", "lng": "-73.986829", "name": "25 Av"}, {"lat": "40.813224", "lng": "-73.929849", "name": "138 St - Grand Concourse"}, {"lat": "40.689627", "lng": "-73.953522", "name": "Bedford - Nostrand Avs"}, {"lat": "40.703087", "lng": "-74.012994", "name": "Whitehall St"}, {"lat": "40.822181", "lng": "-73.896736", "name": "Intervale Av"}, {"lat": "40.829521", "lng": "-73.874516", "name": "Morrison Av- Sound View"}, {"lat": "40.866978", "lng": "-73.893509", "name": "Kingsbridge Rd"}, {"lat": "40.746644", "lng": "-73.891338", "name": "Jackson Hts - Roosevelt Av"}, {"lat": "40.791642", "lng": "-73.964696", "name": "96 St"}, {"lat": "40.655292", "lng": "-73.961495", "name": "Parkside Av"}, {"lat": "40.61741", "lng": "-73.985026", "name": "20 Av"}, {"lat": "40.626472", "lng": "-73.996895", "name": "62 St"}, {"lat": "40.694568", "lng": "-73.949046", "name": "Myrtle - Willoughby Avs"}, {"lat": "40.678024", "lng": "-73.891688", "name": "Van Siclen Av"}, {"lat": "40.631386", "lng": "-74.005351", "name": "Fort Hamilton Pkwy"}, {"lat": "40.674542", "lng": "-73.896548", "name": "Liberty Av"}, {"lat": "40.662742", "lng": "-73.95085", "name": "Sterling St"}, {"lat": "40.883895", "lng": "-73.862633", "name": "219 St"}, {"lat": "40.695602", "lng": "-73.904084", "name": "Halsey St"}, {"lat": "40.837288", "lng": "-73.887734", "name": "174 St"}, {"lat": "40.818375", "lng": "-73.927351", "name": "149 St - Grand Concourse"}, {"lat": "40.69943", "lng": "-73.912385", "name": "Myrtle - Wyckoff Avs"}, {"lat": "40.616622", "lng": "-74.030876", "name": "Bay Ridge - 95 St"}, {"lat": "40.742454", "lng": "-73.882017", "name": "Elmhurst Av"}, {"lat": "40.656652", "lng": "-73.9502", "name": "Winthrop St"}, {"lat": "40.721691", "lng": "-73.844521", "name": "Forest Hills - 71 Av"}, {"lat": "40.646292", "lng": "-73.994324", "name": "9 Av"}, {"lat": "40.67358", "lng": "-73.995959", "name": "Smith - 9 Sts"}, {"lat": "40.703869", "lng": "-73.947408", "name": "Lorimer St"}, {"lat": "40.730953", "lng": "-73.981628", "name": "1 Av"}, {"lat": "40.805368", "lng": "-73.914042", "name": "Cypress Av"}, {"lat": "40.756804", "lng": "-73.929575", "name": "36 Av"}, {"lat": "40.737015", "lng": "-73.877223", "name": "Grand Av - Newtown"}, {"lat": "40.576312", "lng": "-73.968501", "name": "Ocean Pkwy"}, {"lat": "40.586896", "lng": "-73.954155", "name": "Sheepshead Bay"}, {"lat": "40.744065", "lng": "-73.949724", "name": "21 St"}, {"lat": "40.851695", "lng": "-73.937969", "name": "181 St"}, {"lat": "40.644031", "lng": "-73.964492", "name": "Beverly Rd"}, {"lat": "40.622687", "lng": "-74.028398", "name": "86 St"}, {"lat": "40.713065", "lng": "-74.004131", "name": "Brooklyn Bridge - City Hall"}, {"lat": "40.76266", "lng": "-73.967258", "name": "Lexington Av/59 St"}, {"lat": "40.636119", "lng": "-73.978172", "name": "Ditmas Av"}, {"lat": "40.805085", "lng": "-73.954882", "name": "116 St"}, {"lat": "40.670847", "lng": "-73.988302", "name": "9 St"}, {"lat": "40.748973", "lng": "-73.937243", "name": "Queens Plaza"}, {"lat": "40.731352", "lng": "-73.954449", "name": "Greenpoint Av"}, {"lat": "40.706152", "lng": "-73.933147", "name": "Morgan Av"}, {"lat": "40.725297", "lng": "-73.996204", "name": "Broadway - Lafayette St"}, {"lat": "40.698664", "lng": "-73.919711", "name": "Knickerbocker Av"}, {"lat": "40.675377", "lng": "-73.872106", "name": "Euclid Av"}, {"lat": "40.580903", "lng": "-73.835592", "name": "Rockaway Park - Beach 116 St"}, {"lat": "40.764811", "lng": "-73.973347", "name": "5 Av/59 St"}, {"lat": "40.865462", "lng": "-73.867352", "name": "Allerton Av"}, {"lat": "40.603995", "lng": "-73.755405", "name": "Far Rockaway - Mott Av"}, {"lat": "40.735736", "lng": "-73.990568", "name": "14 St - Union Sq"}, {"lat": "40.588034", "lng": "-73.813641", "name": "Beach 90 St"}, {"lat": "40.7596", "lng": "-73.83003", "name": "Flushing - Main St"}, {"lat": "40.766779", "lng": "-73.921479", "name": "30 Av"}, {"lat": "40.690635", "lng": "-73.981824", "name": "DeKalb Av"}, {"lat": "40.886037", "lng": "-73.878751", "name": "Woodlawn"}, {"lat": "40.595246", "lng": "-73.955161", "name": "Neck Rd"}, {"lat": "40.725915", "lng": "-73.994659", "name": "Bleecker St"}, {"lat": "40.712646", "lng": "-73.783817", "name": "Jamaica - 179 St"}, {"lat": "40.704423", "lng": "-73.903077", "name": "Forest Av"}, {"lat": "40.702566", "lng": "-73.816859", "name": "Jamaica - Van Wyck"}, {"lat": "40.588841", "lng": "-73.983765", "name": "Bay 50 St"}, {"lat": "40.874811", "lng": "-73.878855", "name": "Norwood - 205 St"}, {"lat": "40.683666", "lng": "-73.97881", "name": "Atlantic Av - Pacific St"}, {"lat": "40.608382", "lng": "-73.815925", "name": "Broad Channel"}, {"lat": "40.67413", "lng": "-73.88075", "name": "Shepherd Av"}, {"lat": "40.750582", "lng": "-73.940202", "name": "Queensboro Plaza"}, {"lat": "40.770258", "lng": "-73.917843", "name": "Astoria Blvd"}, {"lat": "40.803967", "lng": "-73.966847", "name": "Cathedral Pkwy"}, {"lat": "40.713715", "lng": "-73.990173", "name": "East Broadway"}, {"lat": "40.723402", "lng": "-73.989938", "name": "2 Av"}, {"lat": "40.702147", "lng": "-73.801109", "name": "Jamaica Center - Parsons/Archer"}, {"lat": "40.74104", "lng": "-73.997871", "name": "18 St"}, {"lat": "40.625039", "lng": "-73.960803", "name": "Avenue J"}, {"lat": "40.62927", "lng": "-73.961639", "name": "Avenue H"}, {"lat": "40.625322", "lng": "-73.976127", "name": "Avenue I"}, {"lat": "40.61514", "lng": "-73.974197", "name": "Avenue N"}, {"lat": "40.811109", "lng": "-73.952343", "name": "125 St"}, {"lat": "40.680303", "lng": "-73.995048", "name": "Carroll St"}, {"lat": "40.617618", "lng": "-73.959399", "name": "Avenue M"}, {"lat": "40.608944", "lng": "-73.973022", "name": "Avenue P"}, {"lat": "40.515401", "lng": "-74.245689", "name": "Atlantic"}, {"lat": "40.597473", "lng": "-73.979137", "name": "Avenue U"}, {"lat": "40.58962", "lng": "-73.97425", "name": "Avenue X"}, {"lat": "40.873244", "lng": "-73.887138", "name": "Bedford Park Blvd"}, {"lat": "40.710374", "lng": "-74.007582", "name": "Fulton St"}, {"lat": "40.576127", "lng": "-73.975939", "name": "W 8 St - NY Aquarium"}, {"lat": "40.685951", "lng": "-73.825798", "name": "Ozone Park - Lefferts Blvd"}, {"lat": "40.760167", "lng": "-73.975224", "name": "5 Av/53 St"}, {"lat": "40.675345", "lng": "-73.903097", "name": "Atlantic Av"}, {"lat": "40.77344", "lng": "-73.982209", "name": "66 St - Lincoln Center"}, {"lat": "40.836488", "lng": "-73.847036", "name": "Zerega Av"}, {"lat": "40.858407", "lng": "-73.903879", "name": "183 St"}, {"lat": "40.674772", "lng": "-73.957624", "name": "Park Pl"}, {"lat": "40.756312", "lng": "-73.913333", "name": "46 St"}, {"lat": "40.621319", "lng": "-74.071402", "name": "Clifton"}, {"lat": "40.746325", "lng": "-73.896403", "name": "69 St"}, {"lat": "40.874561", "lng": "-73.909831", "name": "Marble Hill - 225 St"}, {"lat": "40.84681", "lng": "-73.832569", "name": "Buhre Av"}, {"lat": "40.683194", "lng": "-73.873785", "name": "Crescent St"}], "edges": [{"source": 243, "routeName": "C", "target": 209, "sourceName": "Kingston - Throop Avs", "routeColor": "2850AD", "targetName": "Nostrand Av", "value": 1, "routeId": "C"}, {"source": 121, "routeName": "7", "target": 370, "sourceName": "40 St", "routeColor": "B933AD", "targetName": "46 St", "value": 1, "routeId": "7"}, {"source": 218, "routeName": "D", "target": 156, "sourceName": "174 - 175 Sts", "routeColor": "FF6319", "targetName": "170 St", "value": 1, "routeId": "D"}, {"source": 38, "routeName": "4", "target": 136, "sourceName": "Sutter Av - Rutland Rd", "routeColor": "00933C", "targetName": "Crown Hts - Utica Av", "value": 1, "routeId": "4"}, {"source": 113, "routeName": "A", "target": 308, "sourceName": "190 St", "routeColor": "2850AD", "targetName": "181 St", "value": 1, "routeId": "A"}, {"source": 326, "routeName": "4", "target": 265, "sourceName": "14 St - Union Sq", "routeColor": "00933C", "targetName": "23 St", "value": 1, "routeId": "4"}, {"source": 315, "routeName": "D", "target": 158, "sourceName": "9 St", "routeColor": "FF6319", "targetName": "Prospect Av", "value": 1, "routeId": "D"}, {"source": 370, "routeName": "M", "target": 183, "sourceName": "46 St", "routeColor": "FF6319", "targetName": "Northern Blvd", "value": 1, "routeId": "M"}, {"source": 133, "routeName": "G", "target": 233, "sourceName": "Bergen St", "routeColor": "6CBE45", "targetName": "Hoyt - Schermerhorn Sts", "value": 1, "routeId": "G"}, {"source": 360, "routeName": "D", "target": 278, "sourceName": "Bedford Park Blvd", "routeColor": "FF6319", "targetName": "Kingsbridge Rd", "value": 1, "routeId": "D"}, {"source": 280, "routeName": "2", "target": 310, "sourceName": "96 St", "routeColor": "EE352E", "targetName": "86 St", "value": 1, "routeId": "2"}, {"source": 287, "routeName": "A", "target": 285, "sourceName": "Liberty Av", "routeColor": "2850AD", "targetName": "Van Siclen Av", "value": 1, "routeId": "A"}, {"source": 108, "routeName": "5", "target": 107, "sourceName": "Pelham Pkwy", "routeColor": "00933C", "targetName": "Gun Hill Rd", "value": 1, "routeId": "5"}, {"source": 141, "routeName": "R", "target": 142, "sourceName": "45 St", "routeColor": "FCCC0A", "targetName": "53 St", "value": 1, "routeId": "R"}, {"source": 95, "routeName": "2", "target": 288, "sourceName": "President St", "routeColor": "EE352E", "targetName": "Sterling St", "value": 1, "routeId": "2"}, {"source": 62, "routeName": "3", "target": 140, "sourceName": "14 St", "routeColor": "EE352E", "targetName": "Chambers St", "value": 1, "routeId": "3"}, {"source": 274, "routeName": "G", "target": 284, "sourceName": "Bedford - Nostrand Avs", "routeColor": "6CBE45", "targetName": "Myrtle - Willoughby Avs", "value": 1, "routeId": "G"}, {"source": 182, "routeName": "J", "target": 285, "sourceName": "Cleveland St", "routeColor": "996633", "targetName": "Van Siclen Av", "value": 1, "routeId": "J"}, {"source": 250, "routeName": "N", "target": 235, "sourceName": "Cortlandt St", "routeColor": "FCCC0A", "targetName": "City Hall", "value": 1, "routeId": "N"}, {"source": 329, "routeName": "N", "target": 343, "sourceName": "30 Av", "routeColor": "FCCC0A", "targetName": "Astoria Blvd", "value": 1, "routeId": "N"}, {"source": 111, "routeName": "2", "target": 47, "sourceName": "50 St", "routeColor": "EE352E", "targetName": "Times Sq - 42 St", "value": 1, "routeId": "2"}, {"source": 120, "routeName": "7", "target": 153, "sourceName": "5 Av", "routeColor": "B933AD", "targetName": "Grand Central - 42 St", "value": 1, "routeId": "7"}, {"source": 74, "routeName": "A", "target": 226, "sourceName": "Beach 67 St", "routeColor": "2850AD", "targetName": "Beach 60 St", "value": 1, "routeId": "A"}, {"source": 9, "routeName": "2", "target": 111, "sourceName": "59 St - Columbus Circle", "routeColor": "EE352E", "targetName": "50 St", "value": 1, "routeId": "2"}, {"source": 358, "routeName": "F", "target": 248, "sourceName": "Avenue U", "routeColor": "FF6319", "targetName": "Kings Hwy", "value": 1, "routeId": "F"}, {"source": 199, "routeName": "6", "target": 326, "sourceName": "Astor Pl", "routeColor": "00933C", "targetName": "14 St - Union Sq", "value": 1, "routeId": "6"}, {"source": 254, "routeName": "E", "target": 370, "sourceName": "Steinway St", "routeColor": "2850AD", "targetName": "46 St", "value": 1, "routeId": "E"}, {"source": 155, "routeName": "G", "target": 117, "sourceName": "7 Av", "routeColor": "6CBE45", "targetName": "4 Av", "value": 1, "routeId": "G"}, {"source": 374, "routeName": "6", "target": 114, "sourceName": "Buhre Av", "routeColor": "00933C", "targetName": "Pelham Bay Park", "value": 1, "routeId": "6"}, {"source": 261, "routeName": "B", "target": 80, "sourceName": "103 St", "routeColor": "FF6319", "targetName": "Cathedral Pkwy (110 St)", "value": 1, "routeId": "B"}, {"source": 139, "routeName": "A", "target": 253, "sourceName": "168 St", "routeColor": "2850AD", "targetName": "163 St - Amsterdam Av", "value": 1, "routeId": "A"}, {"source": 138, "routeName": "R", "target": 265, "sourceName": "28 St", "routeColor": "FCCC0A", "targetName": "23 St", "value": 1, "routeId": "R"}, {"source": 30, "routeName": "F", "target": 62, "sourceName": "W 4 St", "routeColor": "FF6319", "targetName": "14 St", "value": 1, "routeId": "F"}, {"source": 321, "routeName": "C", "target": 341, "sourceName": "Euclid Av", "routeColor": "2850AD", "targetName": "Shepherd Av", "value": 1, "routeId": "C"}, {"source": 30, "routeName": "C", "target": 62, "sourceName": "W 4 St", "routeColor": "2850AD", "targetName": "14 St", "value": 1, "routeId": "C"}, {"source": 245, "routeName": "1", "target": 353, "sourceName": "116 St - Columbia University", "routeColor": "EE352E", "targetName": "125 St", "value": 1, "routeId": "1"}, {"source": 320, "routeName": "M", "target": 255, "sourceName": "Knickerbocker Av", "routeColor": "FF6319", "targetName": "Central Av", "value": 1, "routeId": "M"}, {"source": 109, "routeName": "A", "target": 9, "sourceName": "72 St", "routeColor": "2850AD", "targetName": "59 St - Columbus Circle", "value": 1, "routeId": "A"}, {"source": 151, "routeName": "D", "target": 266, "sourceName": "25 St", "routeColor": "FF6319", "targetName": "36 St", "value": 1, "routeId": "D"}, {"source": 183, "routeName": "E", "target": 234, "sourceName": "Northern Blvd", "routeColor": "2850AD", "targetName": "65 St", "value": 1, "routeId": "E"}, {"source": 183, "routeName": "R", "target": 370, "sourceName": "Northern Blvd", "routeColor": "FCCC0A", "targetName": "46 St", "value": 1, "routeId": "R"}, {"source": 291, "routeName": "2", "target": 186, "sourceName": "174 St", "routeColor": "EE352E", "targetName": "Freeman St", "value": 1, "routeId": "2"}, {"source": 30, "routeName": "A", "target": 225, "sourceName": "W 4 St", "routeColor": "2850AD", "targetName": "Spring St", "value": 1, "routeId": "A"}, {"source": 189, "routeName": "A", "target": 13, "sourceName": "145 St", "routeColor": "2850AD", "targetName": "135 St", "value": 1, "routeId": "A"}, {"source": 63, "routeName": "F", "target": 286, "sourceName": "Church Av", "routeColor": "FF6319", "targetName": "Fort Hamilton Pkwy", "value": 1, "routeId": "F"}, {"source": 70, "routeName": "M", "target": 319, "sourceName": "Essex St", "routeColor": "FF6319", "targetName": "Broadway - Lafayette St", "value": 1, "routeId": "M"}, {"source": 44, "routeName": "6", "target": 302, "sourceName": "Brook Av", "routeColor": "00933C", "targetName": "Cypress Av", "value": 1, "routeId": "6"}, {"source": 228, "routeName": "R", "target": 84, "sourceName": "63 Dr - Rego Park", "routeColor": "FCCC0A", "targetName": "Woodhaven Blvd", "value": 1, "routeId": "R"}, {"source": 159, "routeName": "L", "target": 230, "sourceName": "Canarsie - Rockaway Pkwy", "routeColor": "A7A9AC", "targetName": "E 105 St", "value": 1, "routeId": "L"}, {"source": 164, "routeName": "5", "target": 108, "sourceName": "Morris Park", "routeColor": "00933C", "targetName": "Pelham Pkwy", "value": 1, "routeId": "5"}, {"source": 79, "routeName": "7", "target": 16, "sourceName": "74 St - Broadway", "routeColor": "B933AD", "targetName": "82 St - Jackson Hts", "value": 1, "routeId": "7"}, {"source": 285, "routeName": "J", "target": 65, "sourceName": "Van Siclen Av", "routeColor": "996633", "targetName": "Alabama Av", "value": 1, "routeId": "J"}, {"source": 303, "routeName": "N", "target": 193, "sourceName": "36 Av", "routeColor": "FCCC0A", "targetName": "Broadway", "value": 1, "routeId": "N"}, {"source": 157, "routeName": "A", "target": 162, "sourceName": "Rockaway Av", "routeColor": "2850AD", "targetName": "Broadway Jct", "value": 1, "routeId": "A"}, {"source": 366, "routeName": "2", "target": 9, "sourceName": "66 St - Lincoln Center", "routeColor": "EE352E", "targetName": "59 St - Columbus Circle", "value": 1, "routeId": "2"}, {"source": 189, "routeName": "1", "target": 150, "sourceName": "145 St", "routeColor": "EE352E", "targetName": "157 St", "value": 1, "routeId": "1"}, {"source": 46, "routeName": "B", "target": 63, "sourceName": "Newkirk Av", "routeColor": "FF6319", "targetName": "Church Av", "value": 1, "routeId": "B"}, {"source": 314, "routeName": "A", "target": 80, "sourceName": "116 St", "routeColor": "2850AD", "targetName": "Cathedral Pkwy (110 St)", "value": 1, "routeId": "A"}, {"source": 288, "routeName": "2", "target": 296, "sourceName": "Sterling St", "routeColor": "EE352E", "targetName": "Winthrop St", "value": 1, "routeId": "2"}, {"source": 47, "routeName": "Q", "target": 217, "sourceName": "Times Sq - 42 St", "routeColor": "FCCC0A", "targetName": "34 St - Herald Sq", "value": 1, "routeId": "Q"}, {"source": 310, "routeName": "N", "target": 358, "sourceName": "86 St", "routeColor": "FCCC0A", "targetName": "Avenue U", "value": 1, "routeId": "N"}, {"source": 166, "routeName": "J", "target": 148, "sourceName": "75 St", "routeColor": "996633", "targetName": "Cypress Hills", "value": 1, "routeId": "J"}, {"source": 352, "routeName": "F", "target": 71, "sourceName": "Avenue N", "routeColor": "FF6319", "targetName": "Bay Pkwy", "value": 1, "routeId": "F"}, {"source": 339, "routeName": "D", "target": 29, "sourceName": "Atlantic Av - Pacific St", "routeColor": "FF6319", "targetName": "Union St", "value": 1, "routeId": "D"}, {"source": 267, "routeName": "5", "target": 361, "sourceName": "Wall St", "routeColor": "00933C", "targetName": "Fulton St", "value": 1, "routeId": "5"}, {"source": 303, "routeName": "Q", "target": 72, "sourceName": "36 Av", "routeColor": "FCCC0A", "targetName": "39 Av", "value": 1, "routeId": "Q"}, {"source": 129, "routeName": "E", "target": 249, "sourceName": "75 Av", "routeColor": "2850AD", "targetName": "Kew Gardens - Union Tpke", "value": 1, "routeId": "E"}, {"source": 265, "routeName": "6", "target": 138, "sourceName": "23 St", "routeColor": "00933C", "targetName": "28 St", "value": 1, "routeId": "6"}, {"source": 314, "routeName": "C", "target": 353, "sourceName": "116 St", "routeColor": "2850AD", "targetName": "125 St", "value": 1, "routeId": "C"}, {"source": 302, "routeName": "6", "target": 99, "sourceName": "Cypress Av", "routeColor": "00933C", "targetName": "E 143 St - St Mary's St", "value": 1, "routeId": "6"}, {"source": 48, "routeName": "A", "target": 139, "sourceName": "175 St", "routeColor": "2850AD", "targetName": "168 St", "value": 1, "routeId": "A"}, {"source": 211, "routeName": "G", "target": 274, "sourceName": "Classon Av", "routeColor": "6CBE45", "targetName": "Bedford - Nostrand Avs", "value": 1, "routeId": "G"}, {"source": 339, "routeName": "R", "target": 29, "sourceName": "Atlantic Av - Pacific St", "routeColor": "FCCC0A", "targetName": "Union St", "value": 1, "routeId": "R"}, {"source": 310, "routeName": "1", "target": 280, "sourceName": "86 St", "routeColor": "EE352E", "targetName": "96 St", "value": 1, "routeId": "1"}, {"source": 217, "routeName": "N", "target": 47, "sourceName": "34 St - Herald Sq", "routeColor": "FCCC0A", "targetName": "Times Sq - 42 St", "value": 1, "routeId": "N"}, {"source": 304, "routeName": "R", "target": 295, "sourceName": "Grand Av - Newtown", "routeColor": "FCCC0A", "targetName": "Elmhurst Av", "value": 1, "routeId": "R"}, {"source": 222, "routeName": "SIR", "target": 357, "sourceName": "Tottenville", "routeColor": "", "targetName": "Atlantic", "value": 1, "routeId": "SI"}, {"source": 167, "routeName": "J", "target": 140, "sourceName": "Canal St", "routeColor": "996633", "targetName": "Chambers St", "value": 1, "routeId": "J"}, {"source": 27, "routeName": "M", "target": 297, "sourceName": "67 Av", "routeColor": "FF6319", "targetName": "Forest Hills - 71 Av", "value": 1, "routeId": "M"}, {"source": 279, "routeName": "R", "target": 234, "sourceName": "Jackson Hts - Roosevelt Av", "routeColor": "FCCC0A", "targetName": "65 St", "value": 1, "routeId": "R"}, {"source": 131, "routeName": "7", "target": 244, "sourceName": "Junction Blvd", "routeColor": "B933AD", "targetName": "103 St - Corona Plaza", "value": 1, "routeId": "7"}, {"source": 23, "routeName": "4", "target": 157, "sourceName": "Junius St", "routeColor": "00933C", "targetName": "Rockaway Av", "value": 1, "routeId": "4"}, {"source": 282, "routeName": "N", "target": 12, "sourceName": "20 Av", "routeColor": "FCCC0A", "targetName": "18 Av", "value": 1, "routeId": "N"}, {"source": 225, "routeName": "4", "target": 333, "sourceName": "Spring St", "routeColor": "00933C", "targetName": "Bleecker St", "value": 1, "routeId": "4"}, {"source": 111, "routeName": "1", "target": 9, "sourceName": "50 St", "routeColor": "EE352E", "targetName": "59 St - Columbus Circle", "value": 1, "routeId": "1"}, {"source": 365, "routeName": "2", "target": 133, "sourceName": "Atlantic Av", "routeColor": "EE352E", "targetName": "Bergen St", "value": 1, "routeId": "2"}, {"source": 292, "routeName": "5", "target": 36, "sourceName": "149 St - Grand Concourse", "routeColor": "00933C", "targetName": "3 Av - 149 St", "value": 1, "routeId": "5"}, {"source": 43, "routeName": "6", "target": 277, "sourceName": "Elder Av", "routeColor": "00933C", "targetName": "Morrison Av- Sound View", "value": 1, "routeId": "6"}, {"source": 83, "routeName": "L", "target": 300, "sourceName": "Graham Av", "routeColor": "A7A9AC", "targetName": "Lorimer St", "value": 1, "routeId": "L"}, {"source": 342, "routeName": "7", "target": 196, "sourceName": "Queensboro Plaza", "routeColor": "B933AD", "targetName": "33 St", "value": 1, "routeId": "7"}, {"source": 361, "routeName": "2", "target": 267, "sourceName": "Fulton St", "routeColor": "EE352E", "targetName": "Wall St", "value": 1, "routeId": "2"}, {"source": 248, "routeName": "Q", "target": 358, "sourceName": "Kings Hwy", "routeColor": "FCCC0A", "targetName": "Avenue U", "value": 1, "routeId": "Q"}, {"source": 97, "routeName": "D", "target": 42, "sourceName": "Fordham Rd", "routeColor": "FF6319", "targetName": "182 - 183 Sts", "value": 1, "routeId": "D"}, {"source": 67, "routeName": "1", "target": 310, "sourceName": "79 St", "routeColor": "EE352E", "targetName": "86 St", "value": 1, "routeId": "1"}, {"source": 167, "routeName": "N", "target": 76, "sourceName": "Canal St", "routeColor": "FCCC0A", "targetName": "Prince St", "value": 1, "routeId": "N"}, {"source": 295, "routeName": "R", "target": 279, "sourceName": "Elmhurst Av", "routeColor": "FCCC0A", "targetName": "Jackson Hts - Roosevelt Av", "value": 1, "routeId": "R"}, {"source": 365, "routeName": "Q", "target": 155, "sourceName": "Atlantic Av", "routeColor": "FCCC0A", "targetName": "7 Av", "value": 1, "routeId": "Q"}, {"source": 326, "routeName": "5", "target": 153, "sourceName": "14 St - Union Sq", "routeColor": "00933C", "targetName": "Grand Central - 42 St", "value": 1, "routeId": "5"}, {"source": 265, "routeName": "C", "target": 75, "sourceName": "23 St", "routeColor": "2850AD", "targetName": "34 St - Penn Station", "value": 1, "routeId": "C"}, {"source": 117, "routeName": "G", "target": 299, "sourceName": "4 Av", "routeColor": "6CBE45", "targetName": "Smith - 9 Sts", "value": 1, "routeId": "G"}, {"source": 105, "routeName": "7", "target": 372, "sourceName": "Woodside - 61 St", "routeColor": "B933AD", "targetName": "69 St", "value": 1, "routeId": "7"}, {"source": 147, "routeName": "N", "target": 250, "sourceName": "Rector St", "routeColor": "FCCC0A", "targetName": "Cortlandt St", "value": 1, "routeId": "N"}, {"source": 162, "routeName": "C", "target": 157, "sourceName": "Broadway Jct", "routeColor": "2850AD", "targetName": "Rockaway Av", "value": 1, "routeId": "C"}, {"source": 138, "routeName": "6", "target": 196, "sourceName": "28 St", "routeColor": "00933C", "targetName": "33 St", "value": 1, "routeId": "6"}, {"source": 193, "routeName": "N", "target": 329, "sourceName": "Broadway", "routeColor": "FCCC0A", "targetName": "30 Av", "value": 1, "routeId": "N"}, {"source": 71, "routeName": "F", "target": 351, "sourceName": "Bay Pkwy", "routeColor": "FF6319", "targetName": "Avenue I", "value": 1, "routeId": "F"}, {"source": 246, "routeName": "S", "target": 269, "sourceName": "Beach 105 St", "routeColor": "", "targetName": "Beach 98 St", "value": 1, "routeId": "H"}, {"source": 251, "routeName": "M", "target": 335, "sourceName": "Fresh Pond Rd", "routeColor": "FF6319", "targetName": "Forest Av", "value": 1, "routeId": "M"}, {"source": 15, "routeName": "SIR", "target": 240, "sourceName": "Oakwood Heights", "routeColor": "", "targetName": "New Dorp", "value": 1, "routeId": "SI"}, {"source": 296, "routeName": "2", "target": 63, "sourceName": "Winthrop St", "routeColor": "EE352E", "targetName": "Church Av", "value": 1, "routeId": "2"}, {"source": 162, "routeName": "L", "target": 112, "sourceName": "Broadway Jct", "routeColor": "A7A9AC", "targetName": "Bushwick Av - Aberdeen St", "value": 1, "routeId": "L"}, {"source": 148, "routeName": "J", "target": 375, "sourceName": "Cypress Hills", "routeColor": "996633", "targetName": "Crescent St", "value": 1, "routeId": "J"}, {"source": 310, "routeName": "R", "target": 294, "sourceName": "86 St", "routeColor": "FCCC0A", "targetName": "Bay Ridge - 95 St", "value": 1, "routeId": "R"}, {"source": 154, "routeName": "J", "target": 169, "sourceName": "Gates Av", "routeColor": "996633", "targetName": "Kosciusko St", "value": 1, "routeId": "J"}, {"source": 358, "routeName": "Q", "target": 332, "sourceName": "Avenue U", "routeColor": "FCCC0A", "targetName": "Neck Rd", "value": 1, "routeId": "Q"}, {"source": 216, "routeName": "2", "target": 289, "sourceName": "225 St", "routeColor": "EE352E", "targetName": "219 St", "value": 1, "routeId": "2"}, {"source": 316, "routeName": "E", "target": 266, "sourceName": "Queens Plaza", "routeColor": "2850AD", "targetName": "36 St", "value": 1, "routeId": "E"}, {"source": 248, "routeName": "N", "target": 71, "sourceName": "Kings Hwy", "routeColor": "FCCC0A", "targetName": "Bay Pkwy", "value": 1, "routeId": "N"}, {"source": 75, "routeName": "2", "target": 138, "sourceName": "34 St - Penn Station", "routeColor": "EE352E", "targetName": "28 St", "value": 1, "routeId": "2"}, {"source": 167, "routeName": "1", "target": 200, "sourceName": "Canal St", "routeColor": "EE352E", "targetName": "Houston St", "value": 1, "routeId": "1"}, {"source": 243, "routeName": "A", "target": 17, "sourceName": "Kingston - Throop Avs", "routeColor": "2850AD", "targetName": "Utica Av", "value": 1, "routeId": "A"}, {"source": 188, "routeName": "F", "target": 57, "sourceName": "57 St", "routeColor": "FF6319", "targetName": "Lexington Av/63 St", "value": 1, "routeId": "F"}, {"source": 198, "routeName": "2", "target": 25, "sourceName": "Wakefield - 241 St", "routeColor": "EE352E", "targetName": "Nereid Av", "value": 1, "routeId": "2"}, {"source": 217, "routeName": "F", "target": 210, "sourceName": "34 St - Herald Sq", "routeColor": "FF6319", "targetName": "42 St - Bryant Pk", "value": 1, "routeId": "F"}, {"source": 373, "routeName": "1", "target": 174, "sourceName": "Marble Hill - 225 St", "routeColor": "EE352E", "targetName": "231 St", "value": 1, "routeId": "1"}, {"source": 12, "routeName": "F", "target": 313, "sourceName": "18 Av", "routeColor": "FF6319", "targetName": "Ditmas Av", "value": 1, "routeId": "F"}, {"source": 103, "routeName": "6", "target": 10, "sourceName": "Westchester Sq - E Tremont Av", "routeColor": "00933C", "targetName": "Middletown Rd", "value": 1, "routeId": "6"}, {"source": 290, "routeName": "L", "target": 293, "sourceName": "Halsey St", "routeColor": "A7A9AC", "targetName": "Myrtle - Wyckoff Avs", "value": 1, "routeId": "L"}, {"source": 329, "routeName": "Q", "target": 193, "sourceName": "30 Av", "routeColor": "FCCC0A", "targetName": "Broadway", "value": 1, "routeId": "Q"}, {"source": 109, "routeName": "3", "target": 47, "sourceName": "72 St", "routeColor": "EE352E", "targetName": "Times Sq - 42 St", "value": 1, "routeId": "3"}, {"source": 267, "routeName": "2", "target": 102, "sourceName": "Wall St", "routeColor": "EE352E", "targetName": "Clark St", "value": 1, "routeId": "2"}, {"source": 221, "routeName": "6", "target": 367, "sourceName": "Castle Hill Av", "routeColor": "00933C", "targetName": "Zerega Av", "value": 1, "routeId": "6"}, {"source": 306, "routeName": "B", "target": 248, "sourceName": "Sheepshead Bay", "routeColor": "FF6319", "targetName": "Kings Hwy", "value": 1, "routeId": "B"}, {"source": 37, "routeName": "4", "target": 23, "sourceName": "Pennsylvania Av", "routeColor": "00933C", "targetName": "Junius St", "value": 1, "routeId": "4"}, {"source": 280, "routeName": "B", "target": 261, "sourceName": "96 St", "routeColor": "FF6319", "targetName": "103 St", "value": 1, "routeId": "B"}, {"source": 168, "routeName": "G", "target": 82, "sourceName": "Metropolitan Av", "routeColor": "6CBE45", "targetName": "Nassau Av", "value": 1, "routeId": "G"}, {"source": 120, "routeName": "7X", "target": 47, "sourceName": "5 Av", "routeColor": "B933AD", "targetName": "Times Sq - 42 St", "value": 1, "routeId": "7X"}, {"source": 109, "routeName": "1", "target": 67, "sourceName": "72 St", "routeColor": "EE352E", "targetName": "79 St", "value": 1, "routeId": "1"}, {"source": 209, "routeName": "A", "target": 243, "sourceName": "Nostrand Av", "routeColor": "2850AD", "targetName": "Kingston - Throop Avs", "value": 1, "routeId": "A"}, {"source": 224, "routeName": "B", "target": 156, "sourceName": "167 St", "routeColor": "FF6319", "targetName": "170 St", "value": 1, "routeId": "B"}, {"source": 97, "routeName": "B", "target": 278, "sourceName": "Fordham Rd", "routeColor": "FF6319", "targetName": "Kingsbridge Rd", "value": 1, "routeId": "B"}, {"source": 258, "routeName": "2", "target": 11, "sourceName": "Eastern Pkwy - Brooklyn Museum", "routeColor": "EE352E", "targetName": "Franklin Av", "value": 1, "routeId": "2"}, {"source": 262, "routeName": "6", "target": 310, "sourceName": "77 St", "routeColor": "00933C", "targetName": "86 St", "value": 1, "routeId": "6"}, {"source": 170, "routeName": "SIR", "target": 178, "sourceName": "Grant City", "routeColor": "", "targetName": "Jefferson Av", "value": 1, "routeId": "SI"}, {"source": 96, "routeName": "2", "target": 365, "sourceName": "Nevins St", "routeColor": "EE352E", "targetName": "Atlantic Av", "value": 1, "routeId": "2"}, {"source": 130, "routeName": "C", "target": 310, "sourceName": "81 St - Museum of Natural History", "routeColor": "2850AD", "targetName": "86 St", "value": 1, "routeId": "C"}, {"source": 153, "routeName": "4", "target": 171, "sourceName": "Grand Central - 42 St", "routeColor": "00933C", "targetName": "51 St", "value": 1, "routeId": "4"}, {"source": 133, "routeName": "F", "target": 177, "sourceName": "Bergen St", "routeColor": "FF6319", "targetName": "Jay St - MetroTech", "value": 1, "routeId": "F"}, {"source": 77, "routeName": "4", "target": 184, "sourceName": "59 St", "routeColor": "00933C", "targetName": "68 St - Hunter College", "value": 1, "routeId": "4"}, {"source": 231, "routeName": "6", "target": 43, "sourceName": "Whitlock Av", "routeColor": "00933C", "targetName": "Elder Av", "value": 1, "routeId": "6"}, {"source": 319, "routeName": "F", "target": 30, "sourceName": "Broadway - Lafayette St", "routeColor": "FF6319", "targetName": "W 4 St", "value": 1, "routeId": "F"}, {"source": 14, "routeName": "G", "target": 155, "sourceName": "15 St - Prospect Park", "routeColor": "6CBE45", "targetName": "7 Av", "value": 1, "routeId": "G"}, {"source": 172, "routeName": "F", "target": 359, "sourceName": "Neptune Av", "routeColor": "FF6319", "targetName": "Avenue X", "value": 1, "routeId": "F"}, {"source": 353, "routeName": "2", "target": 314, "sourceName": "125 St", "routeColor": "EE352E", "targetName": "116 St", "value": 1, "routeId": "2"}, {"source": 63, "routeName": "Q", "target": 309, "sourceName": "Church Av", "routeColor": "FCCC0A", "targetName": "Beverly Rd", "value": 1, "routeId": "Q"}, {"source": 262, "routeName": "4", "target": 310, "sourceName": "77 St", "routeColor": "00933C", "targetName": "86 St", "value": 1, "routeId": "4"}, {"source": 123, "routeName": "L", "target": 22, "sourceName": "Montrose Av", "routeColor": "A7A9AC", "targetName": "Grand St", "value": 1, "routeId": "L"}, {"source": 260, "routeName": "4", "target": 52, "sourceName": "Borough Hall", "routeColor": "00933C", "targetName": "Bowling Green", "value": 1, "routeId": "4"}, {"source": 47, "routeName": "7", "target": 120, "sourceName": "Times Sq - 42 St", "routeColor": "B933AD", "targetName": "5 Av", "value": 1, "routeId": "7"}, {"source": 310, "routeName": "C", "target": 280, "sourceName": "86 St", "routeColor": "2850AD", "targetName": "96 St", "value": 1, "routeId": "C"}, {"source": 244, "routeName": "7", "target": 252, "sourceName": "103 St - Corona Plaza", "routeColor": "B933AD", "targetName": "111 St", "value": 1, "routeId": "7"}, {"source": 235, "routeName": "R", "target": 250, "sourceName": "City Hall", "routeColor": "FCCC0A", "targetName": "Cortlandt St", "value": 1, "routeId": "R"}, {"source": 322, "routeName": "S", "target": 246, "sourceName": "Rockaway Park - Beach 116 St", "routeColor": "", "targetName": "Beach 105 St", "value": 1, "routeId": "H"}, {"source": 130, "routeName": "B", "target": 310, "sourceName": "81 St - Museum of Natural History", "routeColor": "FF6319", "targetName": "86 St", "value": 1, "routeId": "B"}, {"source": 11, "routeName": "4", "target": 258, "sourceName": "Franklin Av", "routeColor": "00933C", "targetName": "Eastern Pkwy - Brooklyn Museum", "value": 1, "routeId": "4"}, {"source": 223, "routeName": "J", "target": 300, "sourceName": "Flushing Av", "routeColor": "996633", "targetName": "Lorimer St", "value": 1, "routeId": "J"}, {"source": 369, "routeName": "S", "target": 11, "sourceName": "Park Pl", "routeColor": "", "targetName": "Franklin Av", "value": 1, "routeId": "FS"}, {"source": 310, "routeName": "B", "target": 280, "sourceName": "86 St", "routeColor": "FF6319", "targetName": "96 St", "value": 1, "routeId": "B"}, {"source": 96, "routeName": "5", "target": 260, "sourceName": "Nevins St", "routeColor": "00933C", "targetName": "Borough Hall", "value": 1, "routeId": "5"}, {"source": 127, "routeName": "SIR", "target": 101, "sourceName": "Richmond Valley", "routeColor": "", "targetName": "Pleasant Plains", "value": 1, "routeId": "SI"}, {"source": 201, "routeName": "A", "target": 340, "sourceName": "Howard Beach - JFK Airport", "routeColor": "2850AD", "targetName": "Broad Channel", "value": 1, "routeId": "A"}, {"source": 265, "routeName": "R", "target": 326, "sourceName": "23 St", "routeColor": "FCCC0A", "targetName": "14 St - Union Sq", "value": 1, "routeId": "R"}, {"source": 177, "routeName": "C", "target": 206, "sourceName": "Jay St - MetroTech", "routeColor": "2850AD", "targetName": "High St", "value": 1, "routeId": "C"}, {"source": 146, "routeName": "E", "target": 111, "sourceName": "42 St - Port Authority Bus Terminal", "routeColor": "2850AD", "targetName": "50 St", "value": 1, "routeId": "E"}, {"source": 86, "routeName": "SIR", "target": 6, "sourceName": "Stapleton", "routeColor": "", "targetName": "Tompkinsville", "value": 1, "routeId": "SI"}, {"source": 80, "routeName": "A", "target": 261, "sourceName": "Cathedral Pkwy (110 St)", "routeColor": "2850AD", "targetName": "103 St", "value": 1, "routeId": "A"}, {"source": 346, "routeName": "F", "target": 319, "sourceName": "2 Av", "routeColor": "FF6319", "targetName": "Broadway - Lafayette St", "value": 1, "routeId": "F"}, {"source": 361, "routeName": "G", "target": 175, "sourceName": "Fulton St", "routeColor": "6CBE45", "targetName": "Clinton - Washington Avs", "value": 1, "routeId": "G"}, {"source": 142, "routeName": "N", "target": 141, "sourceName": "53 St", "routeColor": "FCCC0A", "targetName": "45 St", "value": 1, "routeId": "N"}, {"source": 253, "routeName": "A", "target": 125, "sourceName": "163 St - Amsterdam Av", "routeColor": "2850AD", "targetName": "155 St", "value": 1, "routeId": "A"}, {"source": 330, "routeName": "L", "target": 192, "sourceName": "DeKalb Av", "routeColor": "A7A9AC", "targetName": "Jefferson St", "value": 1, "routeId": "L"}, {"source": 135, "routeName": "F", "target": 346, "sourceName": "Delancey St", "routeColor": "FF6319", "targetName": "2 Av", "value": 1, "routeId": "F"}, {"source": 138, "routeName": "N", "target": 217, "sourceName": "28 St", "routeColor": "FCCC0A", "targetName": "34 St - Herald Sq", "value": 1, "routeId": "N"}, {"source": 47, "routeName": "2", "target": 75, "sourceName": "Times Sq - 42 St", "routeColor": "EE352E", "targetName": "34 St - Penn Station", "value": 1, "routeId": "2"}, {"source": 167, "routeName": "Q", "target": 330, "sourceName": "Canal St", "routeColor": "FCCC0A", "targetName": "DeKalb Av", "value": 1, "routeId": "Q"}, {"source": 314, "routeName": "B", "target": 353, "sourceName": "116 St", "routeColor": "FF6319", "targetName": "125 St", "value": 1, "routeId": "B"}, {"source": 194, "routeName": "Q", "target": 281, "sourceName": "Prospect Park", "routeColor": "FCCC0A", "targetName": "Parkside Av", "value": 1, "routeId": "Q"}, {"source": 242, "routeName": "N", "target": 286, "sourceName": "New Utrecht Av", "routeColor": "FCCC0A", "targetName": "Fort Hamilton Pkwy", "value": 1, "routeId": "N"}, {"source": 84, "routeName": "M", "target": 228, "sourceName": "Woodhaven Blvd", "routeColor": "FF6319", "targetName": "63 Dr - Rego Park", "value": 1, "routeId": "M"}, {"source": 112, "routeName": "L", "target": 247, "sourceName": "Bushwick Av - Aberdeen St", "routeColor": "A7A9AC", "targetName": "Wilson Av", "value": 1, "routeId": "L"}, {"source": 57, "routeName": "F", "target": 145, "sourceName": "Lexington Av/63 St", "routeColor": "FF6319", "targetName": "Roosevelt Island", "value": 1, "routeId": "F"}, {"source": 54, "routeName": "2", "target": 291, "sourceName": "West Farms Sq - E Tremont Av", "routeColor": "EE352E", "targetName": "174 St", "value": 1, "routeId": "2"}, {"source": 261, "routeName": "4", "target": 271, "sourceName": "103 St", "routeColor": "00933C", "targetName": "110 St", "value": 1, "routeId": "4"}, {"source": 263, "routeName": "D", "target": 210, "sourceName": "47 - 50 Sts - Rockefeller Ctr", "routeColor": "FF6319", "targetName": "42 St - Bryant Pk", "value": 1, "routeId": "D"}, {"source": 273, "routeName": "5", "target": 292, "sourceName": "138 St - Grand Concourse", "routeColor": "00933C", "targetName": "149 St - Grand Concourse", "value": 1, "routeId": "5"}, {"source": 132, "routeName": "1", "target": 56, "sourceName": "191 St", "routeColor": "EE352E", "targetName": "Dyckman St", "value": 1, "routeId": "1"}, {"source": 225, "routeName": "C", "target": 30, "sourceName": "Spring St", "routeColor": "2850AD", "targetName": "W 4 St", "value": 1, "routeId": "C"}, {"source": 111, "routeName": "A", "target": 146, "sourceName": "50 St", "routeColor": "2850AD", "targetName": "42 St - Port Authority Bus Terminal", "value": 1, "routeId": "A"}, {"source": 38, "routeName": "5", "target": 136, "sourceName": "Sutter Av - Rutland Rd", "routeColor": "00933C", "targetName": "Crown Hts - Utica Av", "value": 1, "routeId": "5"}, {"source": 155, "routeName": "B", "target": 9, "sourceName": "7 Av", "routeColor": "FF6319", "targetName": "59 St - Columbus Circle", "value": 1, "routeId": "B"}, {"source": 94, "routeName": "L", "target": 365, "sourceName": "Sutter Av", "routeColor": "A7A9AC", "targetName": "Atlantic Av", "value": 1, "routeId": "L"}, {"source": 282, "routeName": "D", "target": 71, "sourceName": "20 Av", "routeColor": "FF6319", "targetName": "Bay Pkwy", "value": 1, "routeId": "D"}, {"source": 207, "routeName": "7", "target": 342, "sourceName": "45 Rd - Court House Sq", "routeColor": "B933AD", "targetName": "Queensboro Plaza", "value": 1, "routeId": "7"}, {"source": 209, "routeName": "5", "target": 11, "sourceName": "Nostrand Av", "routeColor": "00933C", "targetName": "Franklin Av", "value": 1, "routeId": "5"}, {"source": 76, "routeName": "N", "target": 144, "sourceName": "Prince St", "routeColor": "FCCC0A", "targetName": "8 St - NYU", "value": 1, "routeId": "N"}, {"source": 161, "routeName": "A", "target": 157, "sourceName": "Ralph Av", "routeColor": "2850AD", "targetName": "Rockaway Av", "value": 1, "routeId": "A"}, {"source": 142, "routeName": "R", "target": 77, "sourceName": "53 St", "routeColor": "FCCC0A", "targetName": "59 St", "value": 1, "routeId": "R"}, {"source": 78, "routeName": "1", "target": 35, "sourceName": "238 St", "routeColor": "EE352E", "targetName": "Van Cortlandt Park - 242 St", "value": 1, "routeId": "1"}, {"source": 65, "routeName": "J", "target": 162, "sourceName": "Alabama Av", "routeColor": "996633", "targetName": "Broadway Jct", "value": 1, "routeId": "J"}, {"source": 262, "routeName": "R", "target": 310, "sourceName": "77 St", "routeColor": "FCCC0A", "targetName": "86 St", "value": 1, "routeId": "R"}, {"source": 207, "routeName": "7X", "target": 8, "sourceName": "45 Rd - Court House Sq", "routeColor": "B933AD", "targetName": "Hunters Point Av", "value": 1, "routeId": "7X"}, {"source": 192, "routeName": "L", "target": 318, "sourceName": "Jefferson St", "routeColor": "A7A9AC", "targetName": "Morgan Av", "value": 1, "routeId": "L"}, {"source": 190, "routeName": "A", "target": 232, "sourceName": "Rockaway Blvd", "routeColor": "2850AD", "targetName": "Aqueduct - N Conduit Av", "value": 1, "routeId": "A"}, {"source": 2, "routeName": "SIR", "target": 173, "sourceName": "Huguenot", "routeColor": "", "targetName": "Annadale", "value": 1, "routeId": "SI"}, {"source": 167, "routeName": "C", "target": 225, "sourceName": "Canal St", "routeColor": "2850AD", "targetName": "Spring St", "value": 1, "routeId": "C"}, {"source": 75, "routeName": "A", "target": 265, "sourceName": "34 St - Penn Station", "routeColor": "2850AD", "targetName": "23 St", "value": 1, "routeId": "A"}, {"source": 353, "routeName": "D", "target": 9, "sourceName": "125 St", "routeColor": "FF6319", "targetName": "59 St - Columbus Circle", "value": 1, "routeId": "D"}, {"source": 311, "routeName": "5", "target": 326, "sourceName": "Brooklyn Bridge - City Hall", "routeColor": "00933C", "targetName": "14 St - Union Sq", "value": 1, "routeId": "5"}, {"source": 233, "routeName": "A", "target": 66, "sourceName": "Hoyt - Schermerhorn Sts", "routeColor": "2850AD", "targetName": "Lafayette Av", "value": 1, "routeId": "A"}, {"source": 11, "routeName": "A", "target": 209, "sourceName": "Franklin Av", "routeColor": "2850AD", "targetName": "Nostrand Av", "value": 1, "routeId": "A"}, {"source": 270, "routeName": "1", "target": 189, "sourceName": "137 St - City College", "routeColor": "EE352E", "targetName": "145 St", "value": 1, "routeId": "1"}, {"source": 344, "routeName": "1", "target": 245, "sourceName": "Cathedral Pkwy", "routeColor": "EE352E", "targetName": "116 St - Columbia University", "value": 1, "routeId": "1"}, {"source": 155, "routeName": "F", "target": 117, "sourceName": "7 Av", "routeColor": "FF6319", "targetName": "4 Av", "value": 1, "routeId": "F"}, {"source": 160, "routeName": "J", "target": 167, "sourceName": "Bowery", "routeColor": "996633", "targetName": "Canal St", "value": 1, "routeId": "J"}, {"source": 215, "routeName": "4", "target": 224, "sourceName": "161 St - Yankee Stadium", "routeColor": "00933C", "targetName": "167 St", "value": 1, "routeId": "4"}, {"source": 110, "routeName": "Q", "target": 47, "sourceName": "49 St", "routeColor": "FCCC0A", "targetName": "Times Sq - 42 St", "value": 1, "routeId": "Q"}, {"source": 311, "routeName": "4", "target": 167, "sourceName": "Brooklyn Bridge - City Hall", "routeColor": "00933C", "targetName": "Canal St", "value": 1, "routeId": "4"}, {"source": 59, "routeName": "F", "target": 362, "sourceName": "Coney Island - Stillwell Av", "routeColor": "FF6319", "targetName": "W 8 St - NY Aquarium", "value": 1, "routeId": "F"}, {"source": 265, "routeName": "4", "target": 138, "sourceName": "23 St", "routeColor": "00933C", "targetName": "28 St", "value": 1, "routeId": "4"}, {"source": 56, "routeName": "A", "target": 113, "sourceName": "Dyckman St", "routeColor": "2850AD", "targetName": "190 St", "value": 1, "routeId": "A"}, {"source": 268, "routeName": "5", "target": 158, "sourceName": "Jackson Av", "routeColor": "00933C", "targetName": "Prospect Av", "value": 1, "routeId": "5"}, {"source": 71, "routeName": "D", "target": 272, "sourceName": "Bay Pkwy", "routeColor": "FF6319", "targetName": "25 Av", "value": 1, "routeId": "D"}, {"source": 248, "routeName": "F", "target": 356, "sourceName": "Kings Hwy", "routeColor": "FF6319", "targetName": "Avenue P", "value": 1, "routeId": "F"}, {"source": 136, "routeName": "5", "target": 214, "sourceName": "Crown Hts - Utica Av", "routeColor": "00933C", "targetName": "Kingston Av", "value": 1, "routeId": "5"}, {"source": 203, "routeName": "A", "target": 56, "sourceName": "Inwood - 207 St", "routeColor": "2850AD", "targetName": "Dyckman St", "value": 1, "routeId": "A"}, {"source": 156, "routeName": "4", "target": 124, "sourceName": "170 St", "routeColor": "00933C", "targetName": "Mt Eden Av", "value": 1, "routeId": "4"}, {"source": 96, "routeName": "4", "target": 260, "sourceName": "Nevins St", "routeColor": "00933C", "targetName": "Borough Hall", "value": 1, "routeId": "4"}, {"source": 153, "routeName": "7", "target": 197, "sourceName": "Grand Central - 42 St", "routeColor": "B933AD", "targetName": "Vernon Blvd - Jackson Av", "value": 1, "routeId": "7"}, {"source": 11, "routeName": "5", "target": 365, "sourceName": "Franklin Av", "routeColor": "00933C", "targetName": "Atlantic Av", "value": 1, "routeId": "5"}, {"source": 310, "routeName": "A", "target": 130, "sourceName": "86 St", "routeColor": "2850AD", "targetName": "81 St - Museum of Natural History", "value": 1, "routeId": "A"}, {"source": 101, "routeName": "SIR", "target": 90, "sourceName": "Pleasant Plains", "routeColor": "", "targetName": "Prince's Bay", "value": 1, "routeId": "SI"}, {"source": 18, "routeName": "A", "target": 49, "sourceName": "Beach 44 St", "routeColor": "2850AD", "targetName": "Beach 36 St", "value": 1, "routeId": "A"}, {"source": 293, "routeName": "M", "target": 320, "sourceName": "Myrtle - Wyckoff Avs", "routeColor": "FF6319", "targetName": "Knickerbocker Av", "value": 1, "routeId": "M"}, {"source": 354, "routeName": "F", "target": 133, "sourceName": "Carroll St", "routeColor": "FF6319", "targetName": "Bergen St", "value": 1, "routeId": "F"}, {"source": 181, "routeName": "D", "target": 283, "sourceName": "55 St", "routeColor": "FF6319", "targetName": "62 St", "value": 1, "routeId": "D"}, {"source": 341, "routeName": "A", "target": 321, "sourceName": "Shepherd Av", "routeColor": "2850AD", "targetName": "Euclid Av", "value": 1, "routeId": "A"}, {"source": 355, "routeName": "Q", "target": 248, "sourceName": "Avenue M", "routeColor": "FCCC0A", "targetName": "Kings Hwy", "value": 1, "routeId": "Q"}, {"source": 319, "routeName": "D", "target": 22, "sourceName": "Broadway - Lafayette St", "routeColor": "FF6319", "targetName": "Grand St", "value": 1, "routeId": "D"}, {"source": 371, "routeName": "SIR", "target": 86, "sourceName": "Clifton", "routeColor": "", "targetName": "Stapleton", "value": 1, "routeId": "SI"}, {"source": 52, "routeName": "5", "target": 267, "sourceName": "Bowling Green", "routeColor": "00933C", "targetName": "Wall St", "value": 1, "routeId": "5"}, {"source": 297, "routeName": "F", "target": 129, "sourceName": "Forest Hills - 71 Av", "routeColor": "FF6319", "targetName": "75 Av", "value": 1, "routeId": "F"}, {"source": 104, "routeName": "F", "target": 334, "sourceName": "169 St", "routeColor": "FF6319", "targetName": "Jamaica - 179 St", "value": 1, "routeId": "F"}, {"source": 249, "routeName": "F", "target": 259, "sourceName": "Kew Gardens - Union Tpke", "routeColor": "FF6319", "targetName": "Briarwood - Van Wyck Blvd", "value": 1, "routeId": "F"}, {"source": 39, "routeName": "6", "target": 44, "sourceName": "3 Av - 138 St", "routeColor": "00933C", "targetName": "Brook Av", "value": 1, "routeId": "6"}, {"source": 266, "routeName": "N", "target": 151, "sourceName": "36 St", "routeColor": "FCCC0A", "targetName": "25 St", "value": 1, "routeId": "N"}, {"source": 205, "routeName": "L", "target": 58, "sourceName": "New Lots Av", "routeColor": "A7A9AC", "targetName": "Livonia Av", "value": 1, "routeId": "L"}, {"source": 37, "routeName": "5", "target": 23, "sourceName": "Pennsylvania Av", "routeColor": "00933C", "targetName": "Junius St", "value": 1, "routeId": "5"}, {"source": 91, "routeName": "6", "target": 241, "sourceName": "E 149 St", "routeColor": "00933C", "targetName": "Longwood Av", "value": 1, "routeId": "6"}, {"source": 116, "routeName": "B", "target": 306, "sourceName": "Brighton Beach", "routeColor": "FF6319", "targetName": "Sheepshead Bay", "value": 1, "routeId": "B"}, {"source": 175, "routeName": "G", "target": 211, "sourceName": "Clinton - Washington Avs", "routeColor": "6CBE45", "targetName": "Classon Av", "value": 1, "routeId": "G"}, {"source": 11, "routeName": "3", "target": 209, "sourceName": "Franklin Av", "routeColor": "EE352E", "targetName": "Nostrand Av", "value": 1, "routeId": "3"}, {"source": 362, "routeName": "Q", "target": 59, "sourceName": "W 8 St - NY Aquarium", "routeColor": "FCCC0A", "targetName": "Coney Island - Stillwell Av", "value": 1, "routeId": "Q"}, {"source": 266, "routeName": "R", "target": 141, "sourceName": "36 St", "routeColor": "FCCC0A", "targetName": "45 St", "value": 1, "routeId": "R"}, {"source": 186, "routeName": "5", "target": 291, "sourceName": "Freeman St", "routeColor": "00933C", "targetName": "174 St", "value": 1, "routeId": "5"}, {"source": 153, "routeName": "7X", "target": 120, "sourceName": "Grand Central - 42 St", "routeColor": "B933AD", "targetName": "5 Av", "value": 1, "routeId": "7X"}, {"source": 284, "routeName": "G", "target": 223, "sourceName": "Myrtle - Willoughby Avs", "routeColor": "6CBE45", "targetName": "Flushing Av", "value": 1, "routeId": "G"}, {"source": 50, "routeName": "2", "target": 280, "sourceName": "Central Park North (110 St)", "routeColor": "EE352E", "targetName": "96 St", "value": 1, "routeId": "2"}, {"source": 187, "routeName": "E", "target": 167, "sourceName": "World Trade Center", "routeColor": "2850AD", "targetName": "Canal St", "value": 1, "routeId": "E"}, {"source": 196, "routeName": "4", "target": 153, "sourceName": "33 St", "routeColor": "00933C", "targetName": "Grand Central - 42 St", "value": 1, "routeId": "4"}, {"source": 271, "routeName": "6", "target": 314, "sourceName": "110 St", "routeColor": "00933C", "targetName": "116 St", "value": 1, "routeId": "6"}, {"source": 71, "routeName": "N", "target": 282, "sourceName": "Bay Pkwy", "routeColor": "FCCC0A", "targetName": "20 Av", "value": 1, "routeId": "N"}, {"source": 227, "routeName": "L", "target": 149, "sourceName": "Union Sq - 14 St", "routeColor": "A7A9AC", "targetName": "6 Av", "value": 1, "routeId": "L"}, {"source": 225, "routeName": "E", "target": 30, "sourceName": "Spring St", "routeColor": "2850AD", "targetName": "W 4 St", "value": 1, "routeId": "E"}, {"source": 228, "routeName": "E", "target": 27, "sourceName": "63 Dr - Rego Park", "routeColor": "2850AD", "targetName": "67 Av", "value": 1, "routeId": "E"}, {"source": 375, "routeName": "J", "target": 68, "sourceName": "Crescent St", "routeColor": "996633", "targetName": "Norwood Av", "value": 1, "routeId": "J"}, {"source": 351, "routeName": "F", "target": 12, "sourceName": "Avenue I", "routeColor": "FF6319", "targetName": "18 Av", "value": 1, "routeId": "F"}, {"source": 17, "routeName": "C", "target": 243, "sourceName": "Utica Av", "routeColor": "2850AD", "targetName": "Kingston - Throop Avs", "value": 1, "routeId": "C"}, {"source": 353, "routeName": "A", "target": 314, "sourceName": "125 St", "routeColor": "2850AD", "targetName": "116 St", "value": 1, "routeId": "A"}, {"source": 276, "routeName": "2", "target": 158, "sourceName": "Intervale Av", "routeColor": "EE352E", "targetName": "Prospect Av", "value": 1, "routeId": "2"}, {"source": 362, "routeName": "F", "target": 172, "sourceName": "W 8 St - NY Aquarium", "routeColor": "FF6319", "targetName": "Neptune Av", "value": 1, "routeId": "F"}, {"source": 51, "routeName": "M", "target": 195, "sourceName": "Lexington Av/53 St", "routeColor": "FF6319", "targetName": "23 St - Ely Av", "value": 1, "routeId": "M"}, {"source": 279, "routeName": "F", "target": 297, "sourceName": "Jackson Hts - Roosevelt Av", "routeColor": "FF6319", "targetName": "Forest Hills - 71 Av", "value": 1, "routeId": "F"}, {"source": 23, "routeName": "5", "target": 157, "sourceName": "Junius St", "routeColor": "00933C", "targetName": "Rockaway Av", "value": 1, "routeId": "5"}, {"source": 209, "routeName": "3", "target": 214, "sourceName": "Nostrand Av", "routeColor": "EE352E", "targetName": "Kingston Av", "value": 1, "routeId": "3"}, {"source": 125, "routeName": "A", "target": 189, "sourceName": "155 St", "routeColor": "2850AD", "targetName": "145 St", "value": 1, "routeId": "A"}, {"source": 169, "routeName": "J", "target": 204, "sourceName": "Kosciusko St", "routeColor": "996633", "targetName": "Myrtle Av", "value": 1, "routeId": "J"}, {"source": 314, "routeName": "2", "target": 50, "sourceName": "116 St", "routeColor": "EE352E", "targetName": "Central Park North (110 St)", "value": 1, "routeId": "2"}, {"source": 279, "routeName": "E", "target": 295, "sourceName": "Jackson Hts - Roosevelt Av", "routeColor": "2850AD", "targetName": "Elmhurst Av", "value": 1, "routeId": "E"}, {"source": 312, "routeName": "N", "target": 342, "sourceName": "Lexington Av/59 St", "routeColor": "FCCC0A", "targetName": "Queensboro Plaza", "value": 1, "routeId": "N"}, {"source": 229, "routeName": "5", "target": 164, "sourceName": "E 180 St", "routeColor": "00933C", "targetName": "Morris Park", "value": 1, "routeId": "5"}, {"source": 158, "routeName": "N", "target": 315, "sourceName": "Prospect Av", "routeColor": "FCCC0A", "targetName": "9 St", "value": 1, "routeId": "N"}, {"source": 217, "routeName": "Q", "target": 326, "sourceName": "34 St - Herald Sq", "routeColor": "FCCC0A", "targetName": "14 St - Union Sq", "value": 1, "routeId": "Q"}, {"source": 364, "routeName": "E", "target": 51, "sourceName": "5 Av/53 St", "routeColor": "2850AD", "targetName": "Lexington Av/53 St", "value": 1, "routeId": "E"}, {"source": 370, "routeName": "7", "target": 137, "sourceName": "46 St", "routeColor": "B933AD", "targetName": "52 St", "value": 1, "routeId": "7"}, {"source": 357, "routeName": "SIR", "target": 88, "sourceName": "Atlantic", "routeColor": "", "targetName": "Nassau", "value": 1, "routeId": "SI"}, {"source": 292, "routeName": "2", "target": 13, "sourceName": "149 St - Grand Concourse", "routeColor": "EE352E", "targetName": "135 St", "value": 1, "routeId": "2"}, {"source": 370, "routeName": "E", "target": 183, "sourceName": "46 St", "routeColor": "2850AD", "targetName": "Northern Blvd", "value": 1, "routeId": "E"}, {"source": 330, "routeName": "R", "target": 339, "sourceName": "DeKalb Av", "routeColor": "FCCC0A", "targetName": "Atlantic Av - Pacific St", "value": 1, "routeId": "R"}, {"source": 17, "routeName": "A", "target": 161, "sourceName": "Utica Av", "routeColor": "2850AD", "targetName": "Ralph Av", "value": 1, "routeId": "A"}, {"source": 9, "routeName": "A", "target": 111, "sourceName": "59 St - Columbus Circle", "routeColor": "2850AD", "targetName": "50 St", "value": 1, "routeId": "A"}, {"source": 279, "routeName": "M", "target": 295, "sourceName": "Jackson Hts - Roosevelt Av", "routeColor": "FF6319", "targetName": "Elmhurst Av", "value": 1, "routeId": "M"}, {"source": 62, "routeName": "M", "target": 265, "sourceName": "14 St", "routeColor": "FF6319", "targetName": "23 St", "value": 1, "routeId": "M"}, {"source": 285, "routeName": "A", "target": 341, "sourceName": "Van Siclen Av", "routeColor": "2850AD", "targetName": "Shepherd Av", "value": 1, "routeId": "A"}, {"source": 128, "routeName": "F", "target": 85, "sourceName": "Sutphin Blvd", "routeColor": "FF6319", "targetName": "Parsons Blvd", "value": 1, "routeId": "F"}, {"source": 353, "routeName": "4", "target": 273, "sourceName": "125 St", "routeColor": "00933C", "targetName": "138 St - Grand Concourse", "value": 1, "routeId": "4"}, {"source": 343, "routeName": "Q", "target": 329, "sourceName": "Astoria Blvd", "routeColor": "FCCC0A", "targetName": "30 Av", "value": 1, "routeId": "Q"}, {"source": 264, "routeName": "SIR", "target": 5, "sourceName": "Great Kills", "routeColor": "", "targetName": "Bay Terrace", "value": 1, "routeId": "SI"}, {"source": 186, "routeName": "2", "target": 98, "sourceName": "Freeman St", "routeColor": "EE352E", "targetName": "Simpson St", "value": 1, "routeId": "2"}, {"source": 295, "routeName": "E", "target": 304, "sourceName": "Elmhurst Av", "routeColor": "2850AD", "targetName": "Grand Av - Newtown", "value": 1, "routeId": "E"}, {"source": 235, "routeName": "N", "target": 167, "sourceName": "City Hall", "routeColor": "FCCC0A", "targetName": "Canal St", "value": 1, "routeId": "N"}, {"source": 319, "routeName": "M", "target": 30, "sourceName": "Broadway - Lafayette St", "routeColor": "FF6319", "targetName": "W 4 St", "value": 1, "routeId": "M"}, {"source": 204, "routeName": "J", "target": 223, "sourceName": "Myrtle Av", "routeColor": "996633", "targetName": "Flushing Av", "value": 1, "routeId": "J"}, {"source": 368, "routeName": "4", "target": 97, "sourceName": "183 St", "routeColor": "00933C", "targetName": "Fordham Rd", "value": 1, "routeId": "4"}, {"source": 189, "routeName": "B", "target": 125, "sourceName": "145 St", "routeColor": "FF6319", "targetName": "155 St", "value": 1, "routeId": "B"}, {"source": 110, "routeName": "R", "target": 47, "sourceName": "49 St", "routeColor": "FCCC0A", "targetName": "Times Sq - 42 St", "value": 1, "routeId": "R"}, {"source": 353, "routeName": "1", "target": 270, "sourceName": "125 St", "routeColor": "EE352E", "targetName": "137 St - City College", "value": 1, "routeId": "1"}, {"source": 226, "routeName": "A", "target": 18, "sourceName": "Beach 60 St", "routeColor": "2850AD", "targetName": "Beach 44 St", "value": 1, "routeId": "A"}, {"source": 20, "routeName": "M", "target": 293, "sourceName": "Seneca Av", "routeColor": "FF6319", "targetName": "Myrtle - Wyckoff Avs", "value": 1, "routeId": "M"}, {"source": 247, "routeName": "L", "target": 290, "sourceName": "Wilson Av", "routeColor": "A7A9AC", "targetName": "Halsey St", "value": 1, "routeId": "L"}, {"source": 125, "routeName": "D", "target": 189, "sourceName": "155 St", "routeColor": "FF6319", "targetName": "145 St", "value": 1, "routeId": "D"}, {"source": 60, "routeName": "SIR", "target": 134, "sourceName": "Old Town", "routeColor": "", "targetName": "Grasmere", "value": 1, "routeId": "SI"}, {"source": 330, "routeName": "Q", "target": 365, "sourceName": "DeKalb Av", "routeColor": "FCCC0A", "targetName": "Atlantic Av", "value": 1, "routeId": "Q"}, {"source": 287, "routeName": "C", "target": 162, "sourceName": "Liberty Av", "routeColor": "2850AD", "targetName": "Broadway Jct", "value": 1, "routeId": "C"}, {"source": 356, "routeName": "F", "target": 352, "sourceName": "Avenue P", "routeColor": "FF6319", "targetName": "Avenue N", "value": 1, "routeId": "F"}, {"source": 200, "routeName": "2", "target": 167, "sourceName": "Houston St", "routeColor": "EE352E", "targetName": "Canal St", "value": 1, "routeId": "2"}, {"source": 339, "routeName": "N", "target": 330, "sourceName": "Atlantic Av - Pacific St", "routeColor": "FCCC0A", "targetName": "DeKalb Av", "value": 1, "routeId": "N"}, {"source": 291, "routeName": "5", "target": 54, "sourceName": "174 St", "routeColor": "00933C", "targetName": "West Farms Sq - E Tremont Av", "value": 1, "routeId": "5"}, {"source": 271, "routeName": "4", "target": 314, "sourceName": "110 St", "routeColor": "00933C", "targetName": "116 St", "value": 1, "routeId": "4"}, {"source": 9, "routeName": "B", "target": 109, "sourceName": "59 St - Columbus Circle", "routeColor": "FF6319", "targetName": "72 St", "value": 1, "routeId": "B"}, {"source": 285, "routeName": "3", "target": 205, "sourceName": "Van Siclen Av", "routeColor": "EE352E", "targetName": "New Lots Av", "value": 1, "routeId": "3"}, {"source": 37, "routeName": "3", "target": 285, "sourceName": "Pennsylvania Av", "routeColor": "EE352E", "targetName": "Van Siclen Av", "value": 1, "routeId": "3"}, {"source": 153, "routeName": "S", "target": 47, "sourceName": "Grand Central - 42 St", "routeColor": "6D6E71", "targetName": "Times Sq - 42 St", "value": 1, "routeId": "GS"}, {"source": 297, "routeName": "E", "target": 129, "sourceName": "Forest Hills - 71 Av", "routeColor": "2850AD", "targetName": "75 Av", "value": 1, "routeId": "E"}, {"source": 260, "routeName": "5", "target": 52, "sourceName": "Borough Hall", "routeColor": "00933C", "targetName": "Bowling Green", "value": 1, "routeId": "5"}, {"source": 157, "routeName": "3", "target": 23, "sourceName": "Rockaway Av", "routeColor": "EE352E", "targetName": "Junius St", "value": 1, "routeId": "3"}, {"source": 308, "routeName": "1", "target": 132, "sourceName": "181 St", "routeColor": "EE352E", "targetName": "191 St", "value": 1, "routeId": "1"}, {"source": 30, "routeName": "D", "target": 319, "sourceName": "W 4 St", "routeColor": "FF6319", "targetName": "Broadway - Lafayette St", "value": 1, "routeId": "D"}, {"source": 321, "routeName": "A", "target": 238, "sourceName": "Euclid Av", "routeColor": "2850AD", "targetName": "Grant Av", "value": 1, "routeId": "A"}, {"source": 174, "routeName": "1", "target": 78, "sourceName": "231 St", "routeColor": "EE352E", "targetName": "238 St", "value": 1, "routeId": "1"}, {"source": 173, "routeName": "SIR", "target": 115, "sourceName": "Annadale", "routeColor": "", "targetName": "Eltingville", "value": 1, "routeId": "SI"}, {"source": 81, "routeName": "4", "target": 331, "sourceName": "Mosholu Pkwy", "routeColor": "00933C", "targetName": "Woodlawn", "value": 1, "routeId": "4"}, {"source": 197, "routeName": "7", "target": 8, "sourceName": "Vernon Blvd - Jackson Av", "routeColor": "B933AD", "targetName": "Hunters Point Av", "value": 1, "routeId": "7"}, {"source": 289, "routeName": "2", "target": 107, "sourceName": "219 St", "routeColor": "EE352E", "targetName": "Gun Hill Rd", "value": 1, "routeId": "2"}, {"source": 193, "routeName": "G", "target": 168, "sourceName": "Broadway", "routeColor": "6CBE45", "targetName": "Metropolitan Av", "value": 1, "routeId": "G"}, {"source": 133, "routeName": "2", "target": 7, "sourceName": "Bergen St", "routeColor": "EE352E", "targetName": "Grand Army Plaza", "value": 1, "routeId": "2"}, {"source": 119, "routeName": "2", "target": 200, "sourceName": "Christopher St - Sheridan Sq", "routeColor": "EE352E", "targetName": "Houston St", "value": 1, "routeId": "2"}, {"source": 316, "routeName": "R", "target": 312, "sourceName": "Queens Plaza", "routeColor": "FCCC0A", "targetName": "Lexington Av/59 St", "value": 1, "routeId": "R"}, {"source": 261, "routeName": "6", "target": 271, "sourceName": "103 St", "routeColor": "00933C", "targetName": "110 St", "value": 1, "routeId": "6"}, {"source": 13, "routeName": "A", "target": 353, "sourceName": "135 St", "routeColor": "2850AD", "targetName": "125 St", "value": 1, "routeId": "A"}, {"source": 250, "routeName": "1", "target": 140, "sourceName": "Cortlandt St", "routeColor": "EE352E", "targetName": "Chambers St", "value": 1, "routeId": "1"}, {"source": 326, "routeName": "R", "target": 144, "sourceName": "14 St - Union Sq", "routeColor": "FCCC0A", "targetName": "8 St - NYU", "value": 1, "routeId": "R"}, {"source": 63, "routeName": "B", "target": 194, "sourceName": "Church Av", "routeColor": "FF6319", "targetName": "Prospect Park", "value": 1, "routeId": "B"}, {"source": 45, "routeName": "M", "target": 251, "sourceName": "Middle Village - Metropolitan Av", "routeColor": "FF6319", "targetName": "Fresh Pond Rd", "value": 1, "routeId": "M"}, {"source": 171, "routeName": "4", "target": 77, "sourceName": "51 St", "routeColor": "00933C", "targetName": "59 St", "value": 1, "routeId": "4"}, {"source": 109, "routeName": "C", "target": 130, "sourceName": "72 St", "routeColor": "2850AD", "targetName": "81 St - Museum of Natural History", "value": 1, "routeId": "C"}, {"source": 67, "routeName": "D", "target": 12, "sourceName": "79 St", "routeColor": "FF6319", "targetName": "18 Av", "value": 1, "routeId": "D"}, {"source": 87, "routeName": "R", "target": 177, "sourceName": "Court St", "routeColor": "FCCC0A", "targetName": "Jay St - MetroTech", "value": 1, "routeId": "R"}, {"source": 323, "routeName": "R", "target": 191, "sourceName": "5 Av/59 St", "routeColor": "FCCC0A", "targetName": "57 St - 7 Av", "value": 1, "routeId": "R"}, {"source": 232, "routeName": "A", "target": 201, "sourceName": "Aqueduct - N Conduit Av", "routeColor": "2850AD", "targetName": "Howard Beach - JFK Airport", "value": 1, "routeId": "A"}, {"source": 14, "routeName": "F", "target": 155, "sourceName": "15 St - Prospect Park", "routeColor": "FF6319", "targetName": "7 Av", "value": 1, "routeId": "F"}, {"source": 293, "routeName": "L", "target": 330, "sourceName": "Myrtle - Wyckoff Avs", "routeColor": "A7A9AC", "targetName": "DeKalb Av", "value": 1, "routeId": "L"}, {"source": 277, "routeName": "6", "target": 256, "sourceName": "Morrison Av- Sound View", "routeColor": "00933C", "targetName": "St Lawrence Av", "value": 1, "routeId": "6"}, {"source": 189, "routeName": "D", "target": 353, "sourceName": "145 St", "routeColor": "FF6319", "targetName": "125 St", "value": 1, "routeId": "D"}, {"source": 258, "routeName": "3", "target": 11, "sourceName": "Eastern Pkwy - Brooklyn Museum", "routeColor": "EE352E", "targetName": "Franklin Av", "value": 1, "routeId": "3"}, {"source": 117, "routeName": "F", "target": 299, "sourceName": "4 Av", "routeColor": "FF6319", "targetName": "Smith - 9 Sts", "value": 1, "routeId": "F"}, {"source": 324, "routeName": "2", "target": 108, "sourceName": "Allerton Av", "routeColor": "EE352E", "targetName": "Pelham Pkwy", "value": 1, "routeId": "2"}, {"source": 266, "routeName": "R", "target": 316, "sourceName": "36 St", "routeColor": "FCCC0A", "targetName": "Queens Plaza", "value": 1, "routeId": "R"}, {"source": 118, "routeName": "L", "target": 301, "sourceName": "Bedford Av", "routeColor": "A7A9AC", "targetName": "1 Av", "value": 1, "routeId": "L"}, {"source": 115, "routeName": "SIR", "target": 264, "sourceName": "Eltingville", "routeColor": "", "targetName": "Great Kills", "value": 1, "routeId": "SI"}, {"source": 272, "routeName": "D", "target": 337, "sourceName": "25 Av", "routeColor": "FF6319", "targetName": "Bay 50 St", "value": 1, "routeId": "D"}, {"source": 370, "routeName": "R", "target": 254, "sourceName": "46 St", "routeColor": "FCCC0A", "targetName": "Steinway St", "value": 1, "routeId": "R"}, {"source": 184, "routeName": "6", "target": 262, "sourceName": "68 St - Hunter College", "routeColor": "00933C", "targetName": "77 St", "value": 1, "routeId": "6"}, {"source": 21, "routeName": "2", "target": 96, "sourceName": "Hoyt St", "routeColor": "EE352E", "targetName": "Nevins St", "value": 1, "routeId": "2"}, {"source": 194, "routeName": "B", "target": 155, "sourceName": "Prospect Park", "routeColor": "FF6319", "targetName": "7 Av", "value": 1, "routeId": "B"}, {"source": 250, "routeName": "R", "target": 147, "sourceName": "Cortlandt St", "routeColor": "FCCC0A", "targetName": "Rector St", "value": 1, "routeId": "R"}, {"source": 199, "routeName": "4", "target": 326, "sourceName": "Astor Pl", "routeColor": "00933C", "targetName": "14 St - Union Sq", "value": 1, "routeId": "4"}, {"source": 209, "routeName": "4", "target": 11, "sourceName": "Nostrand Av", "routeColor": "00933C", "targetName": "Franklin Av", "value": 1, "routeId": "4"}, {"source": 330, "routeName": "B", "target": 22, "sourceName": "DeKalb Av", "routeColor": "FF6319", "targetName": "Grand St", "value": 1, "routeId": "B"}, {"source": 310, "routeName": "4", "target": 280, "sourceName": "86 St", "routeColor": "00933C", "targetName": "96 St", "value": 1, "routeId": "4"}, {"source": 300, "routeName": "L", "target": 118, "sourceName": "Lorimer St", "routeColor": "A7A9AC", "targetName": "Bedford Av", "value": 1, "routeId": "L"}, {"source": 156, "routeName": "D", "target": 224, "sourceName": "170 St", "routeColor": "FF6319", "targetName": "167 St", "value": 1, "routeId": "D"}, {"source": 22, "routeName": "L", "target": 83, "sourceName": "Grand St", "routeColor": "A7A9AC", "targetName": "Graham Av", "value": 1, "routeId": "L"}, {"source": 69, "routeName": "7", "target": 131, "sourceName": "90 St - Elmhurst Av", "routeColor": "B933AD", "targetName": "Junction Blvd", "value": 1, "routeId": "7"}, {"source": 275, "routeName": "N", "target": 147, "sourceName": "Whitehall St", "routeColor": "FCCC0A", "targetName": "Rector St", "value": 1, "routeId": "N"}, {"source": 210, "routeName": "B", "target": 263, "sourceName": "42 St - Bryant Pk", "routeColor": "FF6319", "targetName": "47 - 50 Sts - Rockefeller Ctr", "value": 1, "routeId": "B"}, {"source": 156, "routeName": "B", "target": 218, "sourceName": "170 St", "routeColor": "FF6319", "targetName": "174 - 175 Sts", "value": 1, "routeId": "B"}, {"source": 285, "routeName": "4", "target": 37, "sourceName": "Van Siclen Av", "routeColor": "00933C", "targetName": "Pennsylvania Av", "value": 1, "routeId": "4"}, {"source": 335, "routeName": "M", "target": 20, "sourceName": "Forest Av", "routeColor": "FF6319", "targetName": "Seneca Av", "value": 1, "routeId": "M"}, {"source": 261, "routeName": "C", "target": 80, "sourceName": "103 St", "routeColor": "2850AD", "targetName": "Cathedral Pkwy (110 St)", "value": 1, "routeId": "C"}, {"source": 171, "routeName": "6", "target": 77, "sourceName": "51 St", "routeColor": "00933C", "targetName": "59 St", "value": 1, "routeId": "6"}, {"source": 77, "routeName": "R", "target": 93, "sourceName": "59 St", "routeColor": "FCCC0A", "targetName": "Bay Ridge Av", "value": 1, "routeId": "R"}, {"source": 140, "routeName": "2", "target": 369, "sourceName": "Chambers St", "routeColor": "EE352E", "targetName": "Park Pl", "value": 1, "routeId": "2"}, {"source": 310, "routeName": "5", "target": 353, "sourceName": "86 St", "routeColor": "00933C", "targetName": "125 St", "value": 1, "routeId": "5"}, {"source": 328, "routeName": "7X", "target": 41, "sourceName": "Flushing - Main St", "routeColor": "B933AD", "targetName": "Mets - Willets Point", "value": 1, "routeId": "7X"}, {"source": 141, "routeName": "N", "target": 266, "sourceName": "45 St", "routeColor": "FCCC0A", "targetName": "36 St", "value": 1, "routeId": "N"}, {"source": 136, "routeName": "4", "target": 214, "sourceName": "Crown Hts - Utica Av", "routeColor": "00933C", "targetName": "Kingston Av", "value": 1, "routeId": "4"}, {"source": 268, "routeName": "2", "target": 36, "sourceName": "Jackson Av", "routeColor": "EE352E", "targetName": "3 Av - 149 St", "value": 1, "routeId": "2"}, {"source": 312, "routeName": "Q", "target": 323, "sourceName": "Lexington Av/59 St", "routeColor": "FCCC0A", "targetName": "5 Av/59 St", "value": 1, "routeId": "Q"}, {"source": 24, "routeName": "1", "target": 167, "sourceName": "Franklin St", "routeColor": "EE352E", "targetName": "Canal St", "value": 1, "routeId": "1"}, {"source": 361, "routeName": "A", "target": 206, "sourceName": "Fulton St", "routeColor": "2850AD", "targetName": "High St", "value": 1, "routeId": "A"}, {"source": 219, "routeName": "5", "target": 237, "sourceName": "Baychester Av", "routeColor": "00933C", "targetName": "Eastchester - Dyre Av", "value": 1, "routeId": "5"}, {"source": 36, "routeName": "2", "target": 292, "sourceName": "3 Av - 149 St", "routeColor": "EE352E", "targetName": "149 St - Grand Concourse", "value": 1, "routeId": "2"}, {"source": 283, "routeName": "D", "target": 34, "sourceName": "62 St", "routeColor": "FF6319", "targetName": "71 St", "value": 1, "routeId": "D"}, {"source": 47, "routeName": "N", "target": 110, "sourceName": "Times Sq - 42 St", "routeColor": "FCCC0A", "targetName": "49 St", "value": 1, "routeId": "N"}, {"source": 337, "routeName": "D", "target": 59, "sourceName": "Bay 50 St", "routeColor": "FF6319", "targetName": "Coney Island - Stillwell Av", "value": 1, "routeId": "D"}, {"source": 307, "routeName": "G", "target": 152, "sourceName": "21 St", "routeColor": "6CBE45", "targetName": "Long Island City - Court Sq", "value": 1, "routeId": "G"}, {"source": 80, "routeName": "C", "target": 314, "sourceName": "Cathedral Pkwy (110 St)", "routeColor": "2850AD", "targetName": "116 St", "value": 1, "routeId": "C"}, {"source": 12, "routeName": "N", "target": 242, "sourceName": "18 Av", "routeColor": "FCCC0A", "targetName": "New Utrecht Av", "value": 1, "routeId": "N"}, {"source": 280, "routeName": "3", "target": 109, "sourceName": "96 St", "routeColor": "EE352E", "targetName": "72 St", "value": 1, "routeId": "3"}, {"source": 218, "routeName": "B", "target": 185, "sourceName": "174 - 175 Sts", "routeColor": "FF6319", "targetName": "Tremont Av", "value": 1, "routeId": "B"}, {"source": 330, "routeName": "N", "target": 177, "sourceName": "DeKalb Av", "routeColor": "FCCC0A", "targetName": "Jay St - MetroTech", "value": 1, "routeId": "N"}, {"source": 290, "routeName": "J", "target": 154, "sourceName": "Halsey St", "routeColor": "996633", "targetName": "Gates Av", "value": 1, "routeId": "J"}, {"source": 348, "routeName": "2", "target": 62, "sourceName": "18 St", "routeColor": "EE352E", "targetName": "14 St", "value": 1, "routeId": "2"}, {"source": 365, "routeName": "3", "target": 133, "sourceName": "Atlantic Av", "routeColor": "EE352E", "targetName": "Bergen St", "value": 1, "routeId": "3"}, {"source": 347, "routeName": "J", "target": 163, "sourceName": "Jamaica Center - Parsons/Archer", "routeColor": "996633", "targetName": "Sutphin Blvd - Archer Av - JFK Airport", "value": 1, "routeId": "J"}, {"source": 336, "routeName": "E", "target": 163, "sourceName": "Jamaica - Van Wyck", "routeColor": "2850AD", "targetName": "Sutphin Blvd - Archer Av - JFK Airport", "value": 1, "routeId": "E"}, {"source": 252, "routeName": "J", "target": 40, "sourceName": "111 St", "routeColor": "996633", "targetName": "104 St", "value": 1, "routeId": "J"}, {"source": 280, "routeName": "A", "target": 310, "sourceName": "96 St", "routeColor": "2850AD", "targetName": "86 St", "value": 1, "routeId": "A"}, {"source": 76, "routeName": "R", "target": 167, "sourceName": "Prince St", "routeColor": "FCCC0A", "targetName": "Canal St", "value": 1, "routeId": "R"}, {"source": 131, "routeName": "7X", "target": 105, "sourceName": "Junction Blvd", "routeColor": "B933AD", "targetName": "Woodside - 61 St", "value": 1, "routeId": "7X"}, {"source": 63, "routeName": "G", "target": 286, "sourceName": "Church Av", "routeColor": "6CBE45", "targetName": "Fort Hamilton Pkwy", "value": 1, "routeId": "G"}, {"source": 70, "routeName": "J", "target": 160, "sourceName": "Essex St", "routeColor": "996633", "targetName": "Bowery", "value": 1, "routeId": "J"}, {"source": 146, "routeName": "C", "target": 111, "sourceName": "42 St - Port Authority Bus Terminal", "routeColor": "2850AD", "targetName": "50 St", "value": 1, "routeId": "C"}, {"source": 13, "routeName": "2", "target": 353, "sourceName": "135 St", "routeColor": "EE352E", "targetName": "125 St", "value": 1, "routeId": "2"}, {"source": 210, "routeName": "F", "target": 263, "sourceName": "42 St - Bryant Pk", "routeColor": "FF6319", "targetName": "47 - 50 Sts - Rockefeller Ctr", "value": 1, "routeId": "F"}, {"source": 369, "routeName": "2", "target": 361, "sourceName": "Park Pl", "routeColor": "EE352E", "targetName": "Fulton St", "value": 1, "routeId": "2"}, {"source": 238, "routeName": "A", "target": 212, "sourceName": "Grant Av", "routeColor": "2850AD", "targetName": "80 St", "value": 1, "routeId": "A"}, {"source": 213, "routeName": "6", "target": 221, "sourceName": "Parkchester", "routeColor": "00933C", "targetName": "Castle Hill Av", "value": 1, "routeId": "6"}, {"source": 367, "routeName": "6", "target": 103, "sourceName": "Zerega Av", "routeColor": "00933C", "targetName": "Westchester Sq - E Tremont Av", "value": 1, "routeId": "6"}, {"source": 167, "routeName": "R", "target": 235, "sourceName": "Canal St", "routeColor": "FCCC0A", "targetName": "City Hall", "value": 1, "routeId": "R"}, {"source": 5, "routeName": "SIR", "target": 15, "sourceName": "Bay Terrace", "routeColor": "", "targetName": "Oakwood Heights", "value": 1, "routeId": "SI"}, {"source": 25, "routeName": "2", "target": 106, "sourceName": "Nereid Av", "routeColor": "EE352E", "targetName": "233 St", "value": 1, "routeId": "2"}, {"source": 58, "routeName": "L", "target": 94, "sourceName": "Livonia Av", "routeColor": "A7A9AC", "targetName": "Sutter Av", "value": 1, "routeId": "L"}, {"source": 111, "routeName": "C", "target": 9, "sourceName": "50 St", "routeColor": "2850AD", "targetName": "59 St - Columbus Circle", "value": 1, "routeId": "C"}, {"source": 228, "routeName": "M", "target": 27, "sourceName": "63 Dr - Rego Park", "routeColor": "FF6319", "targetName": "67 Av", "value": 1, "routeId": "M"}, {"source": 326, "routeName": "Q", "target": 167, "sourceName": "14 St - Union Sq", "routeColor": "FCCC0A", "targetName": "Canal St", "value": 1, "routeId": "Q"}, {"source": 353, "routeName": "5", "target": 273, "sourceName": "125 St", "routeColor": "00933C", "targetName": "138 St - Grand Concourse", "value": 1, "routeId": "5"}, {"source": 202, "routeName": "4", "target": 38, "sourceName": "Saratoga Av", "routeColor": "00933C", "targetName": "Sutter Av - Rutland Rd", "value": 1, "routeId": "4"}, {"source": 273, "routeName": "4", "target": 292, "sourceName": "138 St - Grand Concourse", "routeColor": "00933C", "targetName": "149 St - Grand Concourse", "value": 1, "routeId": "4"}, {"source": 29, "routeName": "D", "target": 315, "sourceName": "Union St", "routeColor": "FF6319", "targetName": "9 St", "value": 1, "routeId": "D"}, {"source": 258, "routeName": "4", "target": 7, "sourceName": "Eastern Pkwy - Brooklyn Museum", "routeColor": "00933C", "targetName": "Grand Army Plaza", "value": 1, "routeId": "4"}, {"source": 342, "routeName": "7X", "target": 207, "sourceName": "Queensboro Plaza", "routeColor": "B933AD", "targetName": "45 Rd - Court House Sq", "value": 1, "routeId": "7X"}, {"source": 27, "routeName": "R", "target": 228, "sourceName": "67 Av", "routeColor": "FCCC0A", "targetName": "63 Dr - Rego Park", "value": 1, "routeId": "R"}, {"source": 236, "routeName": "M", "target": 143, "sourceName": "Hewes St", "routeColor": "FF6319", "targetName": "Marcy Av", "value": 1, "routeId": "M"}, {"source": 183, "routeName": "M", "target": 234, "sourceName": "Northern Blvd", "routeColor": "FF6319", "targetName": "65 St", "value": 1, "routeId": "M"}, {"source": 73, "routeName": "4", "target": 257, "sourceName": "176 St", "routeColor": "00933C", "targetName": "Burnside Av", "value": 1, "routeId": "4"}, {"source": 285, "routeName": "C", "target": 287, "sourceName": "Van Siclen Av", "routeColor": "2850AD", "targetName": "Liberty Av", "value": 1, "routeId": "C"}, {"source": 260, "routeName": "3", "target": 21, "sourceName": "Borough Hall", "routeColor": "EE352E", "targetName": "Hoyt St", "value": 1, "routeId": "3"}, {"source": 30, "routeName": "B", "target": 217, "sourceName": "W 4 St", "routeColor": "FF6319", "targetName": "34 St - Herald Sq", "value": 1, "routeId": "B"}, {"source": 364, "routeName": "M", "target": 51, "sourceName": "5 Av/53 St", "routeColor": "FF6319", "targetName": "Lexington Av/53 St", "value": 1, "routeId": "M"}, {"source": 234, "routeName": "E", "target": 279, "sourceName": "65 St", "routeColor": "2850AD", "targetName": "Jackson Hts - Roosevelt Av", "value": 1, "routeId": "E"}, {"source": 47, "routeName": "3", "target": 75, "sourceName": "Times Sq - 42 St", "routeColor": "EE352E", "targetName": "34 St - Penn Station", "value": 1, "routeId": "3"}, {"source": 252, "routeName": "7", "target": 41, "sourceName": "111 St", "routeColor": "B933AD", "targetName": "Mets - Willets Point", "value": 1, "routeId": "7"}, {"source": 107, "routeName": "5", "target": 219, "sourceName": "Gun Hill Rd", "routeColor": "00933C", "targetName": "Baychester Av", "value": 1, "routeId": "5"}, {"source": 176, "routeName": "4", "target": 81, "sourceName": "Bedford Park Blvd - Lehman College", "routeColor": "00933C", "targetName": "Mosholu Pkwy", "value": 1, "routeId": "4"}, {"source": 151, "routeName": "N", "target": 158, "sourceName": "25 St", "routeColor": "FCCC0A", "targetName": "Prospect Av", "value": 1, "routeId": "N"}, {"source": 49, "routeName": "A", "target": 19, "sourceName": "Beach 36 St", "routeColor": "2850AD", "targetName": "Beach 25 St", "value": 1, "routeId": "A"}, {"source": 223, "routeName": "G", "target": 193, "sourceName": "Flushing Av", "routeColor": "6CBE45", "targetName": "Broadway", "value": 1, "routeId": "G"}, {"source": 157, "routeName": "C", "target": 161, "sourceName": "Rockaway Av", "routeColor": "2850AD", "targetName": "Ralph Av", "value": 1, "routeId": "C"}, {"source": 67, "routeName": "2", "target": 109, "sourceName": "79 St", "routeColor": "EE352E", "targetName": "72 St", "value": 1, "routeId": "2"}, {"source": 209, "routeName": "C", "target": 11, "sourceName": "Nostrand Av", "routeColor": "2850AD", "targetName": "Franklin Av", "value": 1, "routeId": "C"}, {"source": 333, "routeName": "4", "target": 199, "sourceName": "Bleecker St", "routeColor": "00933C", "targetName": "Astor Pl", "value": 1, "routeId": "4"}, {"source": 158, "routeName": "2", "target": 268, "sourceName": "Prospect Av", "routeColor": "EE352E", "targetName": "Jackson Av", "value": 1, "routeId": "2"}, {"source": 286, "routeName": "G", "target": 14, "sourceName": "Fort Hamilton Pkwy", "routeColor": "6CBE45", "targetName": "15 St - Prospect Park", "value": 1, "routeId": "G"},